DATASET_EN,DATASET_TC,NAME_EN,NAME_TC,ADDRESS_EN,ADDRESS_TC,SEARCH01_EN,SEARCH01_TC,SEARCH02_EN,SEARCH02_TC,NSEARCH01_EN,NSEARCH01_TC,NSEARCH02_EN,NSEARCH02_TC,NSEARCH03_EN,Title,NSEARCH04_EN,NSEARCH04_TC,NSEARCH05_EN,NSEARCH05_TC,Latitude,Longitude,LASTUPDATE,NORTHING,EASTING,GeometryEasting,GeometryNorthing
Food Licences (except Restaurant Licences),食物業處所牌照(食肆牌照除外),Food Factory Licence,食物製造廠,"SHOP 1A, UPPER G/F, HARRY IND'L BUILDING, 49-51 AU PUI WAN STREET, FO TAN, SHA TIN, NEW TERRITORIES",新界沙田火炭 坳背灣街49-51號 協力工業大廈 高層地下1A鋪,Sha Tin,沙田區,2997001060,2997001060,97,97,FF,FF,華愛庭,華愛庭,,,9/6/2025,9/6/2025,22.3983957,114.1936315,6/6/2024,828791.6918,837993.5025,837993.5025,828791.6918
Food Licences (except Restaurant Licences),食物業處所牌照(食肆牌照除外),Factory Canteen Licence,工廠食堂,"BLOCK H J & L, 2/F, INTERNATIONAL IND'L CENTRE, 2-8 KWEI TEI STREET, FO TAN, SHA TIN, NEW TERRITORIES",新界沙田火炭 桂地街2-8號 國際工業中心 2樓H J 及L座,Sha Tin,沙田區,2597000151,2597000151,97,97,FE,FE,國際食堂,國際食堂,,,30/6/2025,30/6/2025,22.400549,114.1921453,17/5/2024,829030.1228,837840.4423,837840.4423,829030.1228
Food Licences (except Restaurant Licences),食物業處所牌照(食肆牌照除外),Food Factory Licence,食物製造廠,"FLAT G, 8/F, ON WAH IND'L BUILDING, 41-43 AU PUI WAN STREET, FO TAN, SHA TIN, NEW TERRITORIES",新界沙田火炭 坳背灣街41-43號 安華工業大廈 8樓G室,Sha Tin,沙田區,2997000100,2997000100,97,97,FF,FF,Add Fortune Investment Limited,利加投資有限公司,,,30/9/2025,30/9/2025,22.3977532,114.1946206,16/8/2024,828720.5558,838095.3599,838095.3599,828720.5558
Food Licences (except Restaurant Licences),食物業處所牌照(食肆牌照除外),Food Factory Licence,食物製造廠,"FLAT F, G , 5/F, ON WAH INDUSTRIAL BUILDING, 41-43 AU PUI WAN STREET, FO TAN, SHA TIN, NEW TERRITORIES","新界沙田火炭 坳背灣街41-43號 安華工業大廈 5樓F,G室",Sha Tin,沙田區,2997000429,2997000429,97,97,FF,FF,YHY,東東,,,30/9/2025,30/9/2025,22.3976893,114.1945139,17/9/2024,828713.4785,838084.3736,838084.3736,828713.4785
Food Licences (except Restaurant Licences),食物業處所牌照(食肆牌照除外),Food Factory Licence,食物製造廠,"UNIT NO 4, 8/F, BLOCK A, VERISTRONG IND'L CENTRE, 34-36 AU PUI WAN STREET, FO TAN, SHA TIN, NEW TERRITORIES",新界沙田火炭坳背灣街34-36號豐盛工業 中心A座8樓4室,Sha Tin,沙田區,2997000535,2997000535,97,97,FF,FF,候信興糕品廠,候信興糕品廠,,,30/9/2025,30/9/2025,22.3995977,114.193191,24/7/2024,828924.7912,837948.1292,837948.1292,828924.7912
Food Licences (except Restaurant Licences),食物業處所牌照(食肆牌照除外),Factory Canteen Licence,工廠食堂,"UNIT 4B, G/F, VERISTRONG INDUSTRIAL CENTRE, 34-36 AU PUI WAN STREET, SHA TIN, NEW TERRITORIES",新界沙田 坳背灣街34-36號 豐盛工業中心 4B地下,Sha Tin,沙田區,2597000337,2597000337,97,97,FE,FE,大快樂食堂,大快樂食堂,,,11/12/2025,11/12/2025,22.3995977,114.193191,12/11/2024,828924.7912,837948.1292,837948.1292,828924.7912
Food Licences (except Restaurant Licences),食物業處所牌照(食肆牌照除外),Food Factory Licence,食物製造廠,"SHOP NO 311, HENG ON SHOPPING CENTRE, HENG ON ESTATE, MA ON SHAN, SHA TIN, NEW TERRITORIES",新界沙田馬鞍山 恒安邨恒安商場 311號鋪,Sha Tin,沙田區,2997002054,2997002054,97,97,FF,FF,BREAD CITY CAKE SHOP,麵包城,,,5/6/2025,5/6/2025,22.4167292,114.2278602,18/4/2024,830822.6635,841517.3876,841517.3876,830822.6635
Food Licences (except Restaurant Licences),食物業處所牌照(食肆牌照除外),Factory Canteen Licence,工廠食堂,"SHOP NOS. 5 (PORTION A), G/F NEW COMMERCE CENTRE, 19 ON SUM STREET, SHA TIN, NEW TERRITORIES",新界沙田 安心街19號 匯貿中心 地下5號鋪 (A 部分),Sha Tin,沙田區,2597000300,2597000300,97,97,FE,FE,興記,興記,,,17/11/2025,17/11/2025,22.3891,114.2071925,5/11/2024,827762.5449,839390.1042,839390.1042,827762.5449
Food Licences (except Restaurant Licences),食物業處所牌照(食肆牌照除外),Food Factory Licence,食物製造廠,"FLAT K & L, 13/F, ON WAH IND'L BUILDING, 41-43 AU PUI WAN STREET, FO TAN, SHA TIN, NEW TERRITORIES",新界沙田火炭 坳背灣街41-43號 安華工業大廈 13樓K及L室,Sha Tin,沙田區,2997001282,2997001282,97,97,FF,FF,YHY Ltd,東東,,,6/4/2025,6/4/2025,22.3977532,114.1946206,15/2/2024,828720.5558,838095.3599,838095.3599,828720.5558
Food Licences (except Restaurant Licences),食物業處所牌照(食肆牌照除外),Food Factory Licence,食物製造廠,"FLAT A B & D, 12/F, ON SHING INDUSTRIAL BUILDING, 2-16 WO LIU HANG ROAD, SHA TIN, NEW TERRITORIES","新界沙田 禾寮坑路2-16號 安盛工業大廈12樓 A, B 及D 室",Sha Tin,沙田區,2997000012,2997000012,97,97,FF,FF,Wah Yuen,華園,#J,#J,30/9/2025,30/9/2025,22.3969945,114.1969753,23/8/2024,828636.5712,838337.8388,838337.8388,828636.5712
Food Licences (except Restaurant Licences),食物業處所牌照(食肆牌照除外),Food Factory Licence,食物製造廠,"FLAT 1615, 16/F, TECHNOLOGY PARK, 18 ON LAI STREET, SHA TIN, NEW TERRITORIES",新界沙田 安麗街18號 達利廣場 16樓1615室,Sha Tin,沙田區,2997002674,2997002674,97,97,FF,FF,Onda Pastry,Onda Pastry,,,4/7/2025,4/7/2025,22.3889086,114.2074148,3/7/2024,827741.3547,839413.0006,839413.0006,827741.3547
Food Licences (except Restaurant Licences),食物業處所牌照(食肆牌照除外),Food Factory Licence,食物製造廠,"KIOSK NO.4, SHA TIN PARK, 2 YUEN WO ROAD, SHA TIN, NEW TERRITORIES",新界沙田 源禾路2號 沙田公園 4號小食亭,Sha Tin,沙田區,2997002577,2997002577,97,97,FF,FF,Refreshment Kiosk,小食亭,,,20/2/2026,20/2/2026,22.3795777,114.1901434,7/2/2025,826707.8328,837634.5127,837634.5127,826707.8328
Food Licences (except Restaurant Licences),食物業處所牌照(食肆牌照除外),Food Factory Licence,食物製造廠,"A2 NO 18, THE 6TH DISTRICT, SHA TIN TAU SAN TSUEN, SHA TIN, NEW TERRITORIES",新界沙田 沙田頭新村 第6區18號A2,Sha Tin,沙田區,2997000252,2997000252,97,97,FF,FF,生香豆腐廠,生香豆腐廠,,,30/9/2025,30/9/2025,22.37028,114.190602,31/7/2024,825678.2521,837681.8359,837681.8359,825678.2521
Food Licences (except Restaurant Licences),食物業處所牌照(食肆牌照除外),Factory Canteen Licence,工廠食堂,"BLOCK F, 3/F, LEAPONT IND'L BUILDING, STTL 17, 18-28 WO LIU HANG ROAD, SHA TIN, NEW TERRITORIES",新界沙田 沙田市地段17號 禾寮坑路18-28號 聯邦工業大廈3樓F座,Sha Tin,沙田區,2597000045,2597000045,97,97,FE,FE,新聯邦美食,新聯邦美食,,,30/6/2025,30/6/2025,22.3975098,114.1973004,12/6/2024,828693.6378,838371.3073,838371.3073,828693.6378
Food Licences (except Restaurant Licences),食物業處所牌照(食肆牌照除外),Food Factory Licence,食物製造廠,"ROOM 11-12, 4/F, TRANSPORT CITY, 1-7 SHING WAN ROAD, TAI WAI, SHA TIN, NEW TERRITORIES",新界沙田大圍 成運路1-7號 交通城4樓11-12室,Sha Tin,沙田區,2997000784,2997000784,97,97,FF,FF,真好有限公司,真好有限公司,,,17/5/2025,17/5/2025,22.3762418,114.1815563,7/5/2024,826338.3773,836750.1804,836750.1804,826338.3773
Food Licences (except Restaurant Licences),食物業處所牌照(食肆牌照除外),Food Factory Licence,食物製造廠,"ROOM NO 4, 2/F, TRANSPORT CITY BUILDING, 1-7 SHING WAN ROAD, TAI WAI, SHA TIN, NEW TERRITORIES",新界沙田大圍 成運路1-7號 交通城2樓4室,Sha Tin,沙田區,2997805693,2997805693,97,97,FF,FF,新大興,新大興,,,15/8/2025,15/8/2025,22.3762418,114.1815563,29/5/2024,826338.3773,836750.1804,836750.1804,826338.3773
Food Licences (except Restaurant Licences),食物業處所牌照(食肆牌照除外),Food Factory Licence,食物製造廠,"FLAT 10-11, 7/F, BLOCK B WAH SANG INDUSTRIAL BUILDING, 14-18 WONG CHUK YEUNG STREET, SHA TIN, NEW TERRITORIES",新界沙田 黃竹洋街14-18號 華生工業大廈 B座7樓10-11室,Sha Tin,沙田區,2997001918,2997001918,97,97,FF,FF,Profit Smart Food Limited,利駿食品有限公司,,,20/11/2025,20/11/2025,22.3984173,114.1898081,8/10/2024,828794.0447,837599.8018,837599.8018,828794.0447
Food Licences (except Restaurant Licences),食物業處所牌照(食肆牌照除外),Food Factory Licence,食物製造廠,"SHOP NO 7 (PORTION B), COMMERCIAL CENTRE BLOCK 4, KWONG YUEN ESTATE, SHA TIN, NEW TERRITORIES",新界沙田 廣源邨商場第4座 7號(B部份)鋪,Sha Tin,沙田區,2997001909,2997001909,97,97,FF,FF,7-Eleven,7-Eleven,,,6/11/2025,6/11/2025,22.3806569,114.213983,19/9/2024,826827.7502,840089.6083,840089.6083,826827.7502
Food Licences (except Restaurant Licences),食物業處所牌照(食肆牌照除外),Food Factory Licence,食物製造廠,"5/F, 5-13 WO SHUI STREET, FO TAN, SHA TIN, NEW TERRITORIES",新界沙田火炭 禾穗街5-13號 5樓,Sha Tin,沙田區,2997000678,2997000678,97,97,FF,FF,Luncheon Star,活力午餐,#D#J,#D#J,30/9/2025,30/9/2025,22.397927,114.197722,26/8/2024,828739.8427,838414.7139,838414.7139,828739.8427
Food Licences (except Restaurant Licences),食物業處所牌照(食肆牌照除外),Food Factory Licence,食物製造廠,"ROOM T, 16/F, BLOCK 1, KIN HO INDUSTRIAL BUILDING, AU PUI WAN STREET, FO TAN, SHA TIN, NEW TERRITORIES",新界沙田火炭 坳背灣街 金豪工業大廈 第1座16樓T室,Sha Tin,沙田區,2997000270,2997000270,97,97,FF,FF,龍園沙爹,龍園沙爹,,,30/9/2025,30/9/2025,22.397846,114.1954049,16/10/2024,828730.8418,838176.1194,838176.1194,828730.8418
Food Licences (except Restaurant Licences),食物業處所牌照(食肆牌照除外),Food Factory Licence,食物製造廠,"SHOP B, G/F, NO. 56, DD 187, LOT 580, SHEUNG KENG HAU VILLAGE, TAI WAI, SHA TIN, NEW TERRITORIES",新界沙田大圍第187約第580號地段 上徑口村56號地下B鋪,Sha Tin,沙田區,2997811513,2997811513,97,97,FF,FF,Pizza Bird - Pizza & Chicken,Pizza Bird - Pizza & Chicken,,,18/5/2025,18/5/2025,22.363281,114.173636,26/3/2024,824903.1542,835934.4572,835934.4572,824903.1542
Food Licences (except Restaurant Licences),食物業處所牌照(食肆牌照除外),Food Factory Licence,食物製造廠,"SHOPSTALL NO S72, MARKET, SUNSHINE CITY, MA ON SHAN, SHA TIN, NEW TERRITORIES",新界沙田馬鞍山 新港城街市 S72號檔,Sha Tin,沙田區,2997000915,2997000915,97,97,FF,FF,康泰,康泰,,,19/5/2025,19/5/2025,22.4240947,114.2305381,3/5/2024,831638.3863,841792.8067,841792.8067,831638.3863
Food Licences (except Restaurant Licences),食物業處所牌照(食肆牌照除外),Food Factory Licence,食物製造廠,"SHOP NO. 3, 4 & 5, G/F, WAH LUEN IND'L BUILDING, 15-21 WONG CHUK YEUNG STREET, FO TAN, SHA TIN, NEW TERRITORIES","新界沙田火炭 黃竹洋街15-21號 華聯工業中心 地下3,4及5號",Sha Tin,沙田區,2997000298,2997000298,97,97,FF,FF,合興,合興,,,30/9/2025,30/9/2025,22.398031,114.189395,16/7/2024,828751.2639,837557.268,837557.268,828751.2639
Food Licences (except Restaurant Licences),食物業處所牌照(食肆牌照除外),Food Factory Licence,食物製造廠,"10/F, FLAT F, ON WAH IND'L BUILDING, 41-43 AU PUI WAN STREET, FO TAN, SHA TIN, NEW TERRITORIES",新界沙田火炭 坳背灣街41-43號 安華工業大廈 10樓F室,Sha Tin,沙田區,2997000058,2997000058,97,97,FF,FF,金輝,金輝,,,30/9/2025,30/9/2025,22.3977532,114.1946206,28/8/2024,828720.5558,838095.3599,838095.3599,828720.5558
Food Licences (except Restaurant Licences),食物業處所牌照(食肆牌照除外),Food Factory Licence,食物製造廠,"BLOCK J, 2/F, YUE CHEUNG CENTRE, 1-3 WONG CHUK YEUNG STREET, FO TAN, SHA TIN, NEW TERRITORIES",新界沙田火炭 黃竹洋街1-3號 裕昌中心2樓J座,Sha Tin,沙田區,2997000942,2997000942,97,97,FF,FF,味美,味美,,,8/8/2025,8/8/2025,22.3968892,114.1910307,5/6/2024,828624.8408,837725.7105,837725.7105,828624.8408
Food Licences (except Restaurant Licences),食物業處所牌照(食肆牌照除外),Food Factory Licence,食物製造廠,"UNIT 10, 12TH FLOOR, BLOCK A, WAH SANG INDUSTRIAL BUILDING, 14-18 WONG CHUK YEUNG STREET, FO TAN, SHA TIN, NEW TERRITORIES",新界沙田火炭 黃竹洋街14-18號 華生工業大廈 A座12樓10室,Sha Tin,沙田區,2997002780,2997002780,97,97,FF,FF,Super Region Industrial Limited,超域實業有限公司,,,19/10/2025,19/10/2025,22.3984173,114.1898081,5/9/2024,828794.0447,837599.8018,837599.8018,828794.0447
Food Licences (except Restaurant Licences),食物業處所牌照(食肆牌照除外),Food Factory Licence,食物製造廠,"6/F, CAFE DE CORAL CENTRE, 5 WO SHUI STREET, FO TAN, SHA TIN, NEW TERRITORIES",新界沙田火炭 禾穗街5號 大家樂中心6樓,Sha Tin,沙田區,2997001477,2997001477,97,97,FF,FF,Luncheon Star,活力午餐,#D#J,#D#J,12/1/2026,12/1/2026,22.397963,114.197713,30/12/2024,828743.8291,838413.7866,838413.7866,828743.8291
Food Licences (except Restaurant Licences),食物業處所牌照(食肆牌照除外),Food Factory Licence,食物製造廠,"BLOCK 25, 18/F, WAH LUEN IND'L BUILDING, STTL 163, WONG CHUK YEUNG STREET, FO TAN, SHA TIN, NEW TERRITORIES",新界沙田火炭 沙田市地段163號 黃竹洋街華聯工業中心 18樓25室,Sha Tin,沙田區,2997000304,2997000304,97,97,FF,FF,華強,華強,,,30/9/2025,30/9/2025,22.3982875,114.1912521,5/8/2024,828779.6848,837748.4938,837748.4938,828779.6848
Food Licences (except Restaurant Licences),食物業處所牌照(食肆牌照除外),Food Factory Licence,食物製造廠,"NO 3 & 4, 4/F, TRANSPORT CITY BUILDING, 1-7 SHING WAN ROAD, TAI WAI, SHA TIN, NEW TERRITORIES",新界沙田大圍 成運路1-7號 交通城4樓3&4室,Sha Tin,沙田區,2997000508,2997000508,97,97,FF,FF,金塔,金塔,,,30/9/2025,30/9/2025,22.3762418,114.1815563,16/8/2024,826338.3773,836750.1804,836750.1804,826338.3773
Food Licences (except Restaurant Licences),食物業處所牌照(食肆牌照除外),Factory Canteen Licence,工廠食堂,"16/F, BLOCK A, YUE CHEUNG CENTRE, STTL 79, WONG CHUK YEUNG STREET, FO TAN, SHA TIN, NEW TERRITORIES",新界沙田火炭 沙田市地段79號 黃竹洋街 裕昌中心16樓A座,Sha Tin,沙田區,2597000124,2597000124,97,97,FE,FE,雨花齋,雨花齋,,,30/6/2025,30/6/2025,22.3983897,114.1894815,10/7/2024,828790.9856,837566.1717,837566.1717,828790.9856
Food Licences (except Restaurant Licences),食物業處所牌照(食肆牌照除外),Food Factory Licence,食物製造廠,"UNIT A, 2/F, FU CHEUNG CENTRE, 5-7 WONG CHUK YEUNG STREET, FO TAN, SHA TIN, NEW TERRITORIES",新界沙田火炭 黃竹洋街5-7號 富昌中心2樓A室,Sha Tin,沙田區,2997001662,2997001662,97,97,FF,FF,A-1 Bakery Co (HK) Ltd,A-1 Bakery Co (HK) Ltd,,,30/5/2025,30/5/2025,22.3971518,114.1904734,5/4/2024,828653.9147,837668.3213,837668.3213,828653.9147
Food Licences (except Restaurant Licences),食物業處所牌照(食肆牌照除外),Food Factory Licence,食物製造廠,"FLAT 3, 18/F, WAH LUEN INDUSTRIAL BUILDING, 15 WONG CHUK YEUNG STREET, FO TAN, SHA TIN, NEW TERRITORIES",新界沙田火炭 黃竹洋街15號 華聯工業中心 18樓3室,Sha Tin,沙田區,2997000377,2997000377,97,97,FF,FF,智恒燒爉,智恒燒爉,,,30/9/2025,30/9/2025,22.3977629,114.1894493,9/8/2024,828721.5761,837562.8618,837562.8618,828721.5761
Food Licences (except Restaurant Licences),食物業處所牌照(食肆牌照除外),Factory Canteen Licence,工廠食堂,"FLAT C, 1/F, ON SHING IND'L BUILDING, 2-16 WO LIU HANG ROAD, SHA TIN, NEW TERRITORIES",新界沙田禾寮坑路2-16號安盛工業大廈1 樓C室,Sha Tin,沙田區,2597000018,2597000018,97,97,FE,FE,富濠,富濠,,,30/6/2025,30/6/2025,22.3969945,114.1969753,13/6/2024,828636.5712,838337.8388,838337.8388,828636.5712
Food Licences (except Restaurant Licences),食物業處所牌照(食肆牌照除外),Food Factory Licence,食物製造廠,"SHOP NO 6D, G/F, LEADER IND'L CENTRE, 57-59 AU PUI WAN STREET, FO TAN, SHA TIN, NEW TERRITORIES",新界沙田火炭 坳背灣街57-59號 利達工業中心 地下6D號鋪,Sha Tin,沙田區,2997001194,2997001194,97,97,FF,FF,GOOD FRIENDS FOOD SUPPLY,老友記,,,19/5/2025,19/5/2025,22.3992402,114.1927027,6/6/2024,828885.1978,837897.8529,837897.8529,828885.1978
Food Licences (except Restaurant Licences),食物業處所牌照(食肆牌照除外),Food Factory Licence,食物製造廠,"7/F, ON WAH IND'L BUILDING, STTL 70, FO TAN YEUK, SHA TIN, NEW TERRITORIES",新界沙田火炭約 沙田市地段第70號 安華工業大廈7樓,Sha Tin,沙田區,2997000049,2997000049,97,97,FF,FF,東東,東東,,,30/9/2025,30/9/2025,22.3977532,114.1946206,17/9/2024,828720.5558,838095.3599,838095.3599,828720.5558
Food Licences (except Restaurant Licences),食物業處所牌照(食肆牌照除外),Food Factory Licence,食物製造廠,"STALL NO.4, G/F, SHOPPING CENTRE (MARKET) 2, YU CHUI COURT, NGAU PEI SHA STREET, SHA TIN, NEW TERRITORIES",新界沙田 牛皮沙街 愉翠商場(街市) 地下4號檔,Sha Tin,沙田區,2997002638,2997002638,97,97,FF,FF,家寶,家寶,,,19/6/2025,19/6/2025,22.3821357,114.2051279,8/5/2024,826991.3076,839177.6406,839177.6406,826991.3076
Food Licences (except Restaurant Licences),食物業處所牌照(食肆牌照除外),Factory Canteen Licence,工廠食堂,"SHOP NO 2, L1, WAH YIU IND'L CENTRE, 30-32 AU PUI WAN STREET, FO TAN, SHA TIN, NEW TERRITORIES",新界沙田火炭坳背灣街30-32號華耀工業 中心1樓2號鋪,Sha Tin,沙田區,2597000212,2597000212,97,97,FE,FE,華耀食堂,華耀食堂,,,30/6/2025,30/6/2025,22.3992087,114.194003,2/7/2024,828881.7243,838031.7461,838031.7461,828881.7243
Food Licences (except Restaurant Licences),食物業處所牌照(食肆牌照除外),Food Factory Licence,食物製造廠,"SHOP B, 3/F, UNISON INDUSTRIAL CENTRE, 27-31 AU PUI WAN STREET, FO TAN, SHA TIN, NEW TERRITORIES",新界沙田火炭 坳背灣街27-31號 協興工業中心 3樓B鋪,Sha Tin,沙田區,2997001538,2997001538,97,97,FF,FF,佳成興業,佳成興業,,,25/5/2025,25/5/2025,22.3968516,114.195675,12/8/2024,828620.7297,838203.9458,838203.9458,828620.7297
Food Licences (except Restaurant Licences),食物業處所牌照(食肆牌照除外),Food Factory Licence,食物製造廠,"UNIT 26, 16/F, BLOCK A WAH LUEN INDUSTRIAL CENTRE, 15-21 WONG CHUK YEUNG STREET, FO TAN, SHA TIN, NEW TERRITORIES",新界沙田火炭黃竹洋街15-21號華聯工業 中心A座16樓26室,Sha Tin,沙田區,2997002081,2997002081,97,97,FF,FF,BLENDIT HONG KONG LIMITED,BLENDIT HONG KONG LIMITED,,,11/7/2025,11/7/2025,22.398031,114.189395,5/8/2024,828751.2639,837557.268,837557.268,828751.2639
Food Licences (except Restaurant Licences),食物業處所牌照(食肆牌照除外),Food Factory Licence,食物製造廠,"NO 3, 2/F, WAH LUEN IND'L BUILDING, 15-21 WONG CHUK YEUNG STREET, FO TAN, SHA TIN, NEW TERRITORIES",新界沙田火炭 黃竹洋街15-21號 華聯工業中心 2樓3號,Sha Tin,沙田區,2997000173,2997000173,97,97,FF,FF,黎榮記,黎榮記,,,30/9/2025,30/9/2025,22.3980314,114.1895481,25/7/2024,828751.3095,837573.0329,837573.0329,828751.3095
Food Licences (except Restaurant Licences),食物業處所牌照(食肆牌照除外),Factory Canteen Licence,工廠食堂,"FLAT B, 1/F, SUPREME INDUSTRIAL BUILDING, 15-17 SHAN MEI STREET, FO TAN, SHA TIN, NEW TERRITORIES",新界沙田火炭 山尾街15-17號 峰山工業大廈 1樓B室,Sha Tin,沙田區,2597000364,2597000364,97,97,FE,FE,1st Floor Kitchen,壹樓廚房,,,11/7/2025,11/7/2025,22.3966598,114.1933064,23/7/2024,828599.4619,837960.0476,837960.0476,828599.4619
Food Licences (except Restaurant Licences),食物業處所牌照(食肆牌照除外),Food Factory Licence,食物製造廠,"NO 15, 5/F, TRANSPORT CITY BUILDING, 1-7 SHING WAN ROAD, TAI WAI, SHA TIN, NEW TERRITORIES",新界沙田大圍 成運路1-7號 交通城5樓15號,Sha Tin,沙田區,2997000128,2997000128,97,97,FF,FF,成興,成興,,,30/9/2025,30/9/2025,22.3762418,114.1815563,29/7/2024,826338.3773,836750.1804,836750.1804,826338.3773
Food Licences (except Restaurant Licences),食物業處所牌照(食肆牌照除外),Factory Canteen Licence,工廠食堂,"NO 13, 3/F, WORLD-WIDE INDUSTRIAL CENTRE, 43-47 SHAN MEI STREET, FO TAN, SHA TIN, NEW TERRITORIES",新界沙田火炭 山尾街43-47號 環球工業中心 3樓13號,Sha Tin,沙田區,2597000179,2597000179,97,97,FE,FE,閒日小屋,閒日小屋,,,30/6/2025,30/6/2025,22.3988661,114.1906592,19/9/2024,828843.7507,837687.4361,837687.4361,828843.7507
Food Licences (except Restaurant Licences),食物業處所牌照(食肆牌照除外),Food Factory Licence,食物製造廠,"FLAT F, 12/F, VALIANT IND'L CENTRE, 2-12 AU PUI WAN STREET, FO TAN, SHA TIN, NEW TERRITORIES",新界沙田火炭 坳背灣街2-12號 威力工業中心 12樓F室,Sha Tin,沙田區,2997001015,2997001015,97,97,FF,FF,8H (HONG KONG) LIMITED,八源(香港)有限公司,,,6/4/2025,6/4/2025,22.3973884,114.1961394,20/2/2025,828680.1787,838251.7586,838251.7586,828680.1787
Food Licences (except Restaurant Licences),食物業處所牌照(食肆牌照除外),Factory Canteen Licence,工廠食堂,"G/F, SHOP G (REAR PORTION), CENTURY IND'L CENTRE, 33-35 AU PUI WAN STREET, FO TAN, SHA TIN, NEW TERRITORIES",新界沙田火炭 坳背灣街33-35號 世紀工業中心 地下G鋪(後部份),Sha Tin,沙田區,2597000221,2597000221,97,97,FE,FE,風味食堂,風味食堂,,,26/4/2025,26/4/2025,22.3971142,114.1951177,18/3/2024,828649.8018,838146.5557,838146.5557,828649.8018
Food Licences (except Restaurant Licences),食物業處所牌照(食肆牌照除外),Food Factory Licence,食物製造廠,"TRACKSIDE KIOSKS 1-2 & 4-6, 1/F,GRANDSTANDS I & II, SHA TIN RACECOURSE, SHA TIN, NEW TERRITORIES",新界沙田 沙田馬場 看台1及2 1樓欄邊食物亭1至2及4-6號,Sha Tin,沙田區,2997002115,2997002115,97,97,FF,FF,The Hong Kong Jockey Club,香港賽馬會,,,8/8/2025,8/8/2025,22.401685,114.2047309,31/5/2024,829156.1049,839136.3547,839136.3547,829156.1049
Food Licences (except Restaurant Licences),食物業處所牌照(食肆牌照除外),Food Factory Licence,食物製造廠,"WORKSHOP NO 2, UPPER G/F, HARRY IND'L BUILDING, 49-51 AU PUI WAN STREET, FO TAN, SHA TIN, NEW TERRITORIES",新界沙田火炭 坳背灣街49-51號 協力工業大廈 高層地下2號工作室,Sha Tin,沙田區,2997002258,2997002258,97,97,FF,FF,潮觀快餐廳,潮觀快餐廳,,,28/2/2026,28/2/2026,22.3983957,114.1936315,18/2/2025,828791.6918,837993.5025,837993.5025,828791.6918
Food Licences (except Restaurant Licences),食物業處所牌照(食肆牌照除外),Food Factory Licence,食物製造廠,"G/F (PORTION) 5/F 7/F 8/F 9/F (PORTION)12/F (PORTION) & 13/F, 17-19 YUEN SHUN CIRCUIT, SHA TIN, NEW TERRITORIES",新界沙田 源順圍17-19號 地下(部份)5樓7樓8樓 9樓(部份) 12樓(部份)及13樓,Sha Tin,沙田區,2997000571,2997000571,97,97,FF,FF,Swire Coca Cola HK Ltd,香港太古可口可樂有限公司,#D,#D,30/9/2025,30/9/2025,22.3820648,114.2086786,31/7/2024,826983.5295,839543.305,839543.305,826983.5295
Food Licences (except Restaurant Licences),食物業處所牌照(食肆牌照除外),Food Factory Licence,食物製造廠,"WORKSHOP 8, G/F, SHING CHUEN INDUSTRIAL BUILDING, 25-27 SHING WAN ROAD, TAI WAI, SHA TIN, NEW TERRITORIES",新界沙田大圍 成運路25-27號 成全工業大廈 地下8號工作室,Sha Tin,沙田區,2997002285,2997002285,97,97,FF,FF,TEXAS FOOD SUPPLIES LTD,德州食品供應有限公司,,,25/3/2026,25/3/2026,22.3756324,114.180999,23/1/2025,826270.8934,836692.7873,836692.7873,826270.8934
Food Licences (except Restaurant Licences),食物業處所牌照(食肆牌照除外),Food Factory Licence,食物製造廠,"FLAT 12-15, 7/F, BLOCK B, WAH SANG INDUSTRIAL BUILDING, 14-18 WONG CHUK YEUNG STREET, SHA TIN, NEW TERRITORIES",新界沙田 黃竹洋街14-18號 華生工業大廈 B座7樓12-15室,Sha Tin,沙田區,2997001769,2997001769,97,97,FF,FF,Profit Smart Food Limited,利駿食品有限公司,,,17/12/2025,17/12/2025,22.3982213,114.1900137,20/11/2024,828772.3424,837620.9746,837620.9746,828772.3424
Food Licences (except Restaurant Licences),食物業處所牌照(食肆牌照除外),Factory Canteen Licence,工廠食堂,"FLAT G, 12/F, BLOCK 2, KIN HO IND'L BUILDING, STTL 65-66, 14-24 AU PUI WAN STREET, SHA TIN, NEW TERRITORIES",新界沙田 沙田市地段65-66號 坳背灣街14-24號 金豪工業大廈第2座12樓G室,Sha Tin,沙田區,2597000133,2597000133,97,97,FE,FE,露絲咖啡有限公司,露絲咖啡有限公司,,,30/6/2025,30/6/2025,22.397846,114.1954049,28/6/2024,828730.8418,838176.1194,838176.1194,828730.8418
Food Licences (except Restaurant Licences),食物業處所牌照(食肆牌照除外),Food Factory Licence,食物製造廠,"NO 6A, G/F, LEADER IND'L CENTRE, 57-59 AU PUI WAN STREET, FO TAN, SHA TIN, NEW TERRITORIES",新界沙田火炭 坳背灣街57-59號 利達工業中心 地下6A號,Sha Tin,沙田區,2997000775,2997000775,97,97,FF,FF,唯美士多,唯美士多,,,26/4/2025,26/4/2025,22.3992402,114.1927027,10/5/2024,828885.1978,837897.8529,837897.8529,828885.1978
Food Licences (except Restaurant Licences),食物業處所牌照(食肆牌照除外),Food Factory Licence,食物製造廠,"UNIT 15, 13/F, WAH SANG IND'L BUILDING, 14-18 WONG CHUK YEUNG STREET, FO TAN, SHA TIN, NEW TERRITORIES",新界沙田火炭 黃竹洋街14-18號 華生工業中心 13樓15室,Sha Tin,沙田區,2997001325,2997001325,97,97,FF,FF,富記,富記,,,20/5/2025,20/5/2025,22.3984173,114.1898081,19/3/2024,828794.0447,837599.8018,837599.8018,828794.0447
Food Licences (except Restaurant Licences),食物業處所牌照(食肆牌照除外),Factory Canteen Licence,工廠食堂,"UNIT 6, 4/F, WAH LAI INDUSTRIAL CENTRE, 10-14 KWEI TEI STREET, FO TAN, SHA TIN, NEW TERRITORIES",新界沙田火炭 桂地街10-14號 華麗工業中心 4樓6室,Sha Tin,沙田區,2597000197,2597000197,97,97,FE,FE,匠心味舍,匠心味舍,,,30/6/2025,30/6/2025,22.400165,114.1915416,26/6/2024,828987.5941,837778.2836,837778.2836,828987.5941
Food Licences (except Restaurant Licences),食物業處所牌照(食肆牌照除外),Food Factory Licence,食物製造廠,"FLAT B, G/F, 6 WONG CHUK YEUNG STREET, FO TAN, SHA TIN, NEW TERRITORIES",新界沙田火炭 黃竹洋街6號 地下B室,Sha Tin,沙田區,2997001121,2997001121,97,97,FF,FF,Pizza-Box,Pizza-Box,,,24/11/2025,24/11/2025,22.397642,114.190886,3/1/2025,828708.2013,837710.8026,837710.8026,828708.2013
Food Licences (except Restaurant Licences),食物業處所牌照(食肆牌照除外),Factory Canteen Licence,工廠食堂,"UNIT 6C, G/F, LEADER INDUSTRIAL CENTRE, 57 AU PUI WAN STREET, FO TAN, SHA TIN, NEW TERRITORIES",新界沙田火炭 坳背灣街57號 利達工業中心 地下6C號鋪,Sha Tin,沙田區,2597000319,2597000319,97,97,FE,FE,東盛食堂,東盛食堂,,,3/6/2025,3/6/2025,22.3992402,114.1927027,23/5/2024,828885.1978,837897.8529,837897.8529,828885.1978
Food Licences (except Restaurant Licences),食物業處所牌照(食肆牌照除外),Food Factory Licence,食物製造廠,"FLAT 26, 17/F, WAH LUEN IND'L BUILDING, 15-21 WONG CHUK YEUNG STREET, FO TAN, SHA TIN, NEW TERRITORIES",新界沙田火炭 黃竹洋街15-21號 華聯工業中心 17樓26室,Sha Tin,沙田區,2997000225,2997000225,97,97,FF,FF,寶明,寶明,,,30/9/2025,30/9/2025,22.398031,114.189395,16/7/2024,828751.2639,837557.268,837557.268,828751.2639
Food Licences (except Restaurant Licences),食物業處所牌照(食肆牌照除外),Food Factory Licence,食物製造廠,"BLOCK A  B C & D, 3/F, VALIANT IND'L CENTRE, 2-12 AU PUI WAN STREET, FO TAN, SHA TIN, NEW TERRITORIES",新界沙田火炭 坳背灣街2-12號 威力工業中心 3樓A B C及D座,Sha Tin,沙田區,2997000076,2997000076,97,97,FF,FF,A & W FOOD SERVICE (HONG KONG) LTD,勁寶食品（香港）有限公司,#D,#D,30/9/2025,30/9/2025,22.3973884,114.1961394,3/9/2024,828680.1787,838251.7586,838251.7586,828680.1787
Food Licences (except Restaurant Licences),食物業處所牌照(食肆牌照除外),Food Factory Licence,食物製造廠,"WORKSHOP NO.6, G/F, TECHNOLOGY PARK, 18 ON LAI STREET, SHA TIN, NEW TERRITORIES",新界沙田 安麗街18號 達利廣場 地下6號工作室,Sha Tin,沙田區,2997002513,2997002513,97,97,FF,FF,PIZZA HUT,必勝客,,,30/3/2025,30/3/2025,22.3886925,114.207564,29/2/2024,827717.4279,839428.3698,839428.3698,827717.4279
Food Licences (except Restaurant Licences),食物業處所牌照(食肆牌照除外),Factory Canteen Licence,工廠食堂,"FLAT G, G/F, HARIBEST IND'L BUILDING, LOT 173, 45-47 AU PUI WAN STREET, FO TAN, SHA TIN, NEW TERRITORIES",新界沙田火炭 第173地段 坳背灣街45-47號 喜利佳工業大廈地下G室,Sha Tin,沙田區,2597000249,2597000249,97,97,FE,FE,心美小廚,心美小廚,,,22/12/2025,22/12/2025,22.3981115,114.1940495,13/12/2024,828760.2256,838036.5481,838036.5481,828760.2256
Food Licences (except Restaurant Licences),食物業處所牌照(食肆牌照除外),Food Factory Licence,食物製造廠,"LEVEL 1, SHOP NO 36 (PORTION B), GARDEN RIVERA, SHA TIN, NEW TERRITORIES",新界沙田 河畔花園 1樓36號鋪(B部份),Sha Tin,沙田區,2997001927,2997001927,97,97,FF,FF,7-Eleven,7-Eleven,,,19/11/2025,19/11/2025,22.3811866,114.1952443,19/9/2024,826886.0505,838159.8079,838159.8079,826886.0505
Food Licences (except Restaurant Licences),食物業處所牌照(食肆牌照除外),Factory Canteen Licence,工廠食堂,"SHOP NO 6, G/F, NEW TRADE PLAZA, 6 ON PING STREET, SHA TIN, NEW TERRITORIES",新界沙田 安平街6號 新貿中心 地下6號鋪,Sha Tin,沙田區,2597000267,2597000267,97,97,FE,FE,華記新貿,華記新貿,,,11/2/2026,11/2/2026,22.3906398,114.2073782,11/2/2025,827933.0595,839409.1926,839409.1926,827933.0595
Food Licences (except Restaurant Licences),食物業處所牌照(食肆牌照除外),Food Factory Licence,食物製造廠,"BLOCK G, 13/F, ON WAH IND'L BUILDING, 41-43 AU PUI WAN STREET, SHA TIN, NEW TERRITORIES",新界沙田 坳背灣街41-43號 安華工業大廈 13樓G座,Sha Tin,沙田區,2997001103,2997001103,97,97,FF,FF,文華,文華,,,26/10/2025,26/10/2025,22.3977532,114.1946206,25/10/2024,828720.5558,838095.3599,838095.3599,828720.5558
Food Licences (except Restaurant Licences),食物業處所牌照(食肆牌照除外),Food Factory Licence,食物製造廠,"FLAT 23, 17/F, WAH LUEN IND'L CENTRE, STTL 113-114, FO TAN, SHA TIN, NEW TERRITORIES",新界沙田火炭 沙田市地段113-114號 華聯工業中心 17樓23室,Sha Tin,沙田區,2997000331,2997000331,97,97,FF,FF,耀芳興,耀芳興,,,30/9/2025,30/9/2025,22.3982875,114.1912521,4/9/2024,828779.6848,837748.4938,837748.4938,828779.6848
Food Licences (except Restaurant Licences),食物業處所牌照(食肆牌照除外),Food Factory Licence,食物製造廠,"G/F (PORTION A), LI FUNG CENTRE, 2 ON PING STREET, SIU LEK YUEN, SHA TIN, NEW TERRITORIES",新界沙田小瀝源 安平街2號 利豐中心 地下(A部份)鋪,Sha Tin,沙田區,2997002434,2997002434,97,97,FF,FF,Circle K,Circle K,,,5/12/2025,5/12/2025,22.3901756,114.2070067,25/11/2024,827881.6483,839370.947,839370.947,827881.6483
Food Licences (except Restaurant Licences),食物業處所牌照(食肆牌照除外),Food Factory Licence,食物製造廠,"UNIT 8 & 9, 3/F, BLOCK A WAH SANG IND'L BUILDING, 14-18 WONG CHUK YEUNG STREET, FO TAN, SHA TIN, NEW TERRITORIES",新界沙田火炭 黃竹洋街14-18號 華生工業大廈A座 3樓8及9號室,Sha Tin,沙田區,2997001273,2997001273,97,97,FF,FF,志生食品貿易有限公司,志生食品貿易有限公司,,,8/3/2026,8/3/2026,22.3982213,114.1900137,12/2/2025,828772.3424,837620.9746,837620.9746,828772.3424
Food Licences (except Restaurant Licences),食物業處所牌照(食肆牌照除外),Food Factory Licence,食物製造廠,"UNIT 15, 6/F, TRANSPORT CITY BUILDING, 1-7 SHING WAN ROAD, TAI WAI, SHA TIN, NEW TERRITORIES",新界沙田大圍 成運路1-7號 交通城6樓15室,Sha Tin,沙田區,2997001486,2997001486,97,97,FF,FF,金發,金發,,,22/2/2026,22/2/2026,22.3762418,114.1815563,13/12/2024,826338.3773,836750.1804,836750.1804,826338.3773
Food Licences (except Restaurant Licences),食物業處所牌照(食肆牌照除外),Food Factory Licence,食物製造廠,"THE HONG KONG JOCKEY CLUB, SHA TIN RACE COURSE SHA TIN CONTRACT NO. 6, GRANDSTAND CATERING ESTABLISHMENT (G/F EUROPEAN COLD KITCHEN, 1B, 1C & 2B AREA), SHA TIN, NEW TERRITORIES","新界沙田香港賽馬會 沙田馬場沙田合約6號觀眾看台 (馬場生產廚房地下1B, 1C 及 2B區)",Sha Tin,沙田區,2997000021,2997000021,97,97,FF,FF,The Hong Kong Jockey Club,香港賽馬會,#G#H,#G#H,30/9/2025,30/9/2025,22.4029687,114.2070973,6/8/2024,829298.3036,839379.9916,839379.9916,829298.3036
Food Licences (except Restaurant Licences),食物業處所牌照(食肆牌照除外),Food Factory Licence,食物製造廠,"UNIT 11, 17/F, WAH SANG INDUSTRIAL BUILDING, 14-18 WONG CHUK YEUNG STREET, FO TAN, SHA TIN, NEW TERRITORIES",新界沙田火炭 黃竹洋街14-18號 華生工業大廈 17樓11室,Sha Tin,沙田區,2997000465,2997000465,97,97,FF,FF,嘉禾,嘉禾,,,30/9/2025,30/9/2025,22.3984173,114.1898081,23/7/2024,828794.0447,837599.8018,837599.8018,828794.0447
Food Licences (except Restaurant Licences),食物業處所牌照(食肆牌照除外),Food Factory Licence,食物製造廠,"PORTION A OF WORKSHOP B, G/F, ON SHING INDUSTRIAL BUILDING, 2-16 WO LIU HANG ROAD, FO TAN, SHA TIN, NEW TERRITORIES",新界沙田火炭 禾寮坑路2-16號 安盛工業大廈 地下B工作室(A部份),Sha Tin,沙田區,2997002461,2997002461,97,97,FF,FF,Circle K,Circle K,,,20/12/2025,20/12/2025,22.3969945,114.1969753,25/11/2024,828636.5712,838337.8388,838337.8388,828636.5712
Food Licences (except Restaurant Licences),食物業處所牌照(食肆牌照除外),Food Factory Licence,食物製造廠,"FLAT 32 & 33, 20/F, BLOCK B, WAH LOK IND'L BUILDING, STTL 165, NGAU WU TOK STREET, FO TAN, SHA TIN, NEW TERRITORIES",新界沙田火炭 沙田市地段第165號 牛湖托街華樂工業中心 B座20樓32及33室,Sha Tin,沙田區,2997000562,2997000562,97,97,FF,FF,恆發,恆發,,,30/9/2025,30/9/2025,22.397612,114.191732,30/9/2024,828704.8876,837797.9171,837797.9171,828704.8876
Food Licences (except Restaurant Licences),食物業處所牌照(食肆牌照除外),Factory Canteen Licence,工廠食堂,"UNIT 1, G/F, NEW COMMERCE CENTRE, STTL 389, ON SUM STREET, SHA TIN, NEW TERRITORIES",新界沙田 沙田市地段389號 安心街 匯貿中心地下1室,Sha Tin,沙田區,2597000276,2597000276,97,97,FE,FE,CAFE YUANYANG,鴛鴦奶茶,,,25/9/2025,25/9/2025,22.3891,114.2071925,20/9/2024,827762.5449,839390.1042,839390.1042,827762.5449
Food Licences (except Restaurant Licences),食物業處所牌照(食肆牌照除外),Food Factory Licence,食物製造廠,"NO 3, 1/F, FU YUE HOUSE, LEK YUEN ESTATE, SHA TIN, NEW TERRITORIES",新界沙田 瀝源邨 富裕樓 1樓3號鋪,Sha Tin,沙田區,2997000605,2997000605,97,97,FF,FF,時新甜品屋,時新甜品屋,,,30/9/2025,30/9/2025,22.3844544,114.1909611,23/7/2024,827247.8644,837718.673,837718.673,827247.8644
Food Licences (except Restaurant Licences),食物業處所牌照(食肆牌照除外),Food Factory Licence,食物製造廠,"G/F, MINOR PORTION OF SHOP NO 116, YIU ON SHOPPING CENTRE, YIU ON ESTATE, MA ON SHAN, SHA TIN, NEW TERRITORIES",新界沙田 馬鞍山耀安邨 耀安商場地下 116號鋪(次要部份),Sha Tin,沙田區,2997002276,2997002276,97,97,FF,FF,Circle K,Circle K,,,7/3/2025,7/3/2025,22.4204629,114.2304123,15/2/2024,831236.2103,841779.9988,841779.9988,831236.2103
Food Licences (except Restaurant Licences),食物業處所牌照(食肆牌照除外),Food Factory Licence,食物製造廠,"FLAT V, 10/F, VALIANT IND'L CENTRE, 2-12 AU PUI WAN STREET, FO TAN, SHA TIN, NEW TERRITORIES",新界沙田火炭 坳背灣街2-12號 威力工業中心 10樓V室,Sha Tin,沙田區,2997000243,2997000243,97,97,FF,FF,中華麵廠,中華麵廠,,,30/9/2025,30/9/2025,22.3973884,114.1961394,2/10/2024,828680.1787,838251.7586,838251.7586,828680.1787
Food Licences (except Restaurant Licences),食物業處所牌照(食肆牌照除外),Food Factory Licence,食物製造廠,"UNIT 7A, 1/F, BLOCK A, VERISTRONG IND'L CENTRE, 34-36 AU PUI WAN STREET, FO TAN, SHA TIN, NEW TERRITORIES",新界沙田火炭 坳背灣街34-36號 豐盛工業中心 A座1樓7A室,Sha Tin,沙田區,2997001714,2997001714,97,97,FF,FF,"WELLDONE FOOD COMPANY, OCEAN EMPIRE FOOD SHOP",永好食品公司(海皇粥店),#D,#D,23/7/2025,23/7/2025,22.3996026,114.1931671,22/7/2024,828925.3335,837945.6681,837945.6681,828925.3335
Food Licences (except Restaurant Licences),食物業處所牌照(食肆牌照除外),Food Factory Licence,食物製造廠,"SHOP NO 114 (PORTION B), HIN KENG SHOPPING CENTRE, HIN KENG ESTATE, SHA TIN, NEW TERRITORIES",新界沙田 顯徑邨顯徑商場 114號(B部份)鋪,Sha Tin,沙田區,2997001264,2997001264,97,97,FF,FF,7-ELEVEN,7-ELEVEN,,,24/11/2025,24/11/2025,22.3633638,114.1715984,20/9/2024,824912.329,835724.5905,835724.5905,824912.329
Food Licences (except Restaurant Licences),食物業處所牌照(食肆牌照除外),Food Factory Licence,食物製造廠,"NO 15, 4/F, TRANSPORT CITY BUILDING, 1-7 SHING WAN ROAD, TAI WAI, SHA TIN, NEW TERRITORIES",新界沙田 大圍成運路1-7號 交通城4樓15號室,Sha Tin,沙田區,2997000261,2997000261,97,97,FF,FF,NEW HOPHING NOODLE FOOD LTD,新合興粉麵食品有限公司,,,30/9/2025,30/9/2025,22.3762418,114.1815563,25/7/2024,826338.3773,836750.1804,836750.1804,826338.3773
Food Licences (except Restaurant Licences),食物業處所牌照(食肆牌照除外),Food Factory Licence,食物製造廠,"UNIT 19, 18/F, WAH LUEN INDUSTRIAL CENTRE, STTL 113 & 114, FO TAN, SHA TIN, NEW TERRITORIES",新界沙田火炭 沙田市地段113-114號 華聯工業中心 18字樓19室,Sha Tin,沙田區,2997000146,2997000146,97,97,FF,FF,名人燒味食品公司,名人燒味食品公司,,,30/9/2025,30/9/2025,22.3982875,114.1912521,13/8/2024,828779.6848,837748.4938,837748.4938,828779.6848
Food Licences (except Restaurant Licences),食物業處所牌照(食肆牌照除外),Food Factory Licence,食物製造廠,"SHOP B, UG/F, YUE CHEUNG CENTRE, 1-3 WONG CHUK YEUNG STREET, FO TAN, SHA TIN, NEW TERRITORIES",新界沙田火炭 黃竹洋街1-3號 裕昌中心 高層地下B鋪,Sha Tin,沙田區,2997001495,2997001495,97,97,FF,FF,寶源,寶源,,,24/2/2026,24/2/2026,22.3968892,114.1910307,4/2/2025,828624.8408,837725.7105,837725.7105,828624.8408
Food Licences (except Restaurant Licences),食物業處所牌照(食肆牌照除外),Factory Canteen Licence,工廠食堂,"UNIT 6, FACTORY B, G/F, BLOCK 1, KIN HO INDUSTRIAL BUILDING, 14-24 AU PUI WAN STREET, FO TAN, SHA TIN, NEW TERRITORIES",新界沙田火炭坳背灣街14-24號 金豪工業大廈1座地下B6號鋪,Sha Tin,沙田區,2597800320,2597800320,97,97,FE,FE,KPOP,KPOP,,,2/3/2025,2/3/2025,22.397846,114.1954049,7/3/2024,828730.8418,838176.1194,838176.1194,828730.8418
Food Licences (except Restaurant Licences),食物業處所牌照(食肆牌照除外),Food Factory Licence,食物製造廠,"FLAT F, 16/F, YUE CHEONG BUILDING, NO 1 WONG CHUK YEUNG STREET, FO TAN, SHA TIN, NEW TERRITORIES",新界沙田火炭 黃竹洋街1號 裕昌中心 16樓F室,Sha Tin,沙田區,2997000395,2997000395,97,97,FF,FF,利苑,利苑,,,30/9/2025,30/9/2025,22.3968892,114.1910307,16/9/2024,828624.8408,837725.7105,837725.7105,828624.8408
Food Licences (except Restaurant Licences),食物業處所牌照(食肆牌照除外),Factory Canteen Licence,工廠食堂,"SHOP B UNIT 7, LEVEL 1, WAH YIU INDUSTRIAL CENTRE, 30-32 AU PUI WAN STREET, FO TAN, SHA TIN, NEW TERRITORIES",新界沙田火炭 坳背灣街30-32號 華耀工業中心 1樓7號B鋪,Sha Tin,沙田區,2597000328,2597000328,97,97,FE,FE,捷佳食堂,捷佳食堂,,,18/7/2025,18/7/2025,22.3992087,114.194003,27/9/2024,828881.7243,838031.7461,838031.7461,828881.7243
Food Licences (except Restaurant Licences),食物業處所牌照(食肆牌照除外),Factory Canteen Licence,工廠食堂,"NO 23, 25 & 26, 3/F, PHASE 1, WAH LOK IND'L CENTRE, STTL 165, FO TAN, SHA TIN, NEW TERRITORIES","新界沙田火炭 沙田市地段165號 華樂工業中心第1期 3樓23,25及26室",Sha Tin,沙田區,2597000203,2597000203,97,97,FE,FE,CANSPES ROOM,圓點工房,,,30/6/2025,30/6/2025,22.397612,114.191732,27/5/2024,828704.8876,837797.9171,837797.9171,828704.8876
Food Licences (except Restaurant Licences),食物業處所牌照(食肆牌照除外),Food Factory Licence,食物製造廠,"UNIT 9, 16/F, FONDA IND'L BUILDING, 37-39 AU PUI WAN STREET, SHA TIN, NEW TERRITORIES",新界沙田 坳背灣街37-39號 峰達工業大廈 16樓9室,Sha Tin,沙田區,2997000650,2997000650,97,97,FF,FF,強記,強記,,,30/9/2025,30/9/2025,22.3973474,114.1947461,15/7/2024,828675.6208,838108.2882,838108.2882,828675.6208
Food Licences (except Restaurant Licences),食物業處所牌照(食肆牌照除外),Food Factory Licence,食物製造廠,"ROOM NO.15, 2/F, GOLDFIELD INDUSTRIAL CENTRE, 1 SUI WO ROAD, FO TAN, SHA TIN, NEW TERRITORIES",新界沙田火炭 穗禾路1號 豐利工業中心 2樓15號室,Sha Tin,沙田區,2997002610,2997002610,97,97,FF,FF,日昇粉麵廠,日昇粉麵廠,,,2/6/2025,2/6/2025,22.3973545,114.1920175,3/4/2024,828676.3761,837827.3185,837827.3185,828676.3761
Food Licences (except Restaurant Licences),食物業處所牌照(食肆牌照除外),Food Factory Licence,食物製造廠,"FLAT 28, 12/F, BLOCK B WAH LOK IND'L CENTRE, SHAN MEI STREET, FO TAN, SHA TIN, NEW TERRITORIES",新界沙田火炭 山尾街 華樂工業中心 B座12樓28室,Sha Tin,沙田區,2997001033,2997001033,97,97,FF,FF,Shine & Shine Food Co,Shine & Shine Food Co,#D,#D,28/4/2025,28/4/2025,22.397612,114.191732,25/4/2024,828704.8876,837797.9171,837797.9171,828704.8876
Food Licences (except Restaurant Licences),食物業處所牌照(食肆牌照除外),Food Factory Licence,食物製造廠,"FLAT NO 7, 17/F, WAH SANG IND'L BUILDING, 14-18 WONG CHUK YEUNG STREET, FO TAN, SHA TIN, NEW TERRITORIES",新界沙田火炭 黃竹洋街14-18號 華生工業大廈 17樓7室,Sha Tin,沙田區,2997000447,2997000447,97,97,FF,FF,南榮興,南榮興,,,30/9/2025,30/9/2025,22.3984173,114.1898081,29/7/2024,828794.0447,837599.8018,837599.8018,828794.0447
Food Licences (except Restaurant Licences),食物業處所牌照(食肆牌照除外),Food Factory Licence,食物製造廠,"PARADE RING TAKE AWAY 1/F, GRANDSTAND 1, SHA TIN RACECOURSE, SHA TIN, NEW TERRITORIES",新界沙田 沙田馬場 1號看台 1樓小食亭,Sha Tin,沙田區,2997002382,2997002382,97,97,FF,FF,Parade Ring Take Away,沙圈快餐櫃位,,,11/11/2025,11/11/2025,22.3991134,114.2030351,10/9/2024,828871.3053,838961.7897,838961.7897,828871.3053
Food Licences (except Restaurant Licences),食物業處所牌照(食肆牌照除外),Factory Canteen Licence,工廠食堂,"8/F, 11 TRANSPORT CITY BUILDING, 1-7 SHING WAN ROAD, TAI WAI, SHA TIN, NEW TERRITORIES",新界沙田大圍 城運路1-7號 交通城工業大廈 8樓11室,Sha Tin,沙田區,2597000054,2597000054,97,97,FE,FE,美食館,美食館,,,30/6/2025,30/6/2025,22.3762418,114.1815563,25/7/2024,826338.3773,836750.1804,836750.1804,826338.3773
Food Licences (except Restaurant Licences),食物業處所牌照(食肆牌照除外),Food Factory Licence,食物製造廠,"UNIT A16, 13/F, BLOCK A VERISTRONG IND'L CENTRE, 34-36 AU PUI WAN STREET, FO TAN, SHA TIN, NEW TERRITORIES",新界沙田火炭 坳背灣街34-36號 豐盛工業中心 A座13樓A16室,Sha Tin,沙田區,2997001185,2997001185,97,97,FF,FF,鴻安粉麵廠,鴻安粉麵廠,,,26/4/2025,26/4/2025,22.3996026,114.1931671,3/5/2024,828925.3335,837945.6681,837945.6681,828925.3335
Food Licences (except Restaurant Licences),食物業處所牌照(食肆牌照除外),Food Factory Licence,食物製造廠,"4/F, 5-13 WO SHUI STREET, FO TAN, SHA TIN, NEW TERRITORIES",新界沙田火炭 禾穗街5-13號 4樓,Sha Tin,沙田區,2997000687,2997000687,97,97,FF,FF,Cafe de Coral,大家樂,#D#J,#D#J,30/9/2025,30/9/2025,22.3979445,114.1978039,26/8/2024,828741.7818,838423.147,838423.147,828741.7818
Food Licences (except Restaurant Licences),食物業處所牌照(食肆牌照除外),Food Factory Licence,食物製造廠,"UNIT NOS 11-15, 2/F, TECHNOLOGY PARK, 18 ON LAI STREET, SHA TIN, NEW TERRITORIES",新界沙田火炭 安麗街18號 達利廣場 2樓11-15室,Sha Tin,沙田區,2997001820,2997001820,97,97,FF,FF,泛亞飲食中心,泛亞飲食中心,#D#J,#D#J,7/3/2026,7/3/2026,22.3889086,114.2074148,22/1/2025,827741.3547,839413.0006,839413.0006,827741.3547
Food Licences (except Restaurant Licences),食物業處所牌照(食肆牌照除外),Food Factory Licence,食物製造廠,"FLAT 3, 6/F, WAH LUEN IND'L BUILDING, 15-21 WONG CHUK YEUNG STREET, FO TAN, SHA TIN, NEW TERRITORIES",新界沙田火炭 黃竹洋街15-21號 華聯工業中心 6樓3室,Sha Tin,沙田區,2997000614,2997000614,97,97,FF,FF,明興,明興,,,30/9/2025,30/9/2025,22.3980314,114.1895481,22/8/2024,828751.3095,837573.0329,837573.0329,828751.3095
Food Licences (except Restaurant Licences),食物業處所牌照(食肆牌照除外),Food Factory Licence,食物製造廠,"G/F, SHOP NO 50 (PORTION), WAH LUEN IND'L CENTRE, 15-21 WONG CHUK YEUNG STREET, FO TAN, SHA TIN, NEW TERRITORIES",新界沙田火炭 黃竹洋街15-21號 華聯工業中心 地下50號鋪(部份),Sha Tin,沙田區,2997000881,2997000881,97,97,FF,FF,大快樂,大快樂,,,23/10/2025,23/10/2025,22.398031,114.189395,24/10/2024,828751.2639,837557.268,837557.268,828751.2639
Food Licences (except Restaurant Licences),食物業處所牌照(食肆牌照除外),Food Factory Licence,食物製造廠,"UNIT 9, 1/F, VERISTRONG CENTRE, 34-36 AU PUI WAN STREET, FO TAN, SHA TIN, NEW TERRITORIES",新界沙田火炭坳背灣街34-36號豐盛工業 中心1樓9室,Sha Tin,沙田區,2997001167,2997001167,97,97,FF,FF,永好食品公司(海皇國際附屬機構),永好食品公司(海皇國際附屬機構),#D,#D,1/3/2025,1/3/2025,22.3996026,114.1931671,23/2/2024,828925.3335,837945.6681,837945.6681,828925.3335
Food Licences (except Restaurant Licences),食物業處所牌照(食肆牌照除外),Food Factory Licence,食物製造廠,"PORTION B OF SHOP NOS 1-4 (PORTION), COOKED FOOD STALL, LUNG HANG ESTATE, SHA TIN, NEW TERRITORIES",新界沙田隆亨邨熟食中心1-4號B部份鋪,Sha Tin,沙田區,2997001361,2997001361,97,97,FF,FF,7-ELEVEN,7-ELEVEN,,,2/8/2025,2/8/2025,22.36864614,114.1798015,27/6/2024,825497.2646,836569.4795,836569.4795,825497.2646
Food Licences (except Restaurant Licences),食物業處所牌照(食肆牌照除外),Food Factory Licence,食物製造廠,"SHOP 7 & 8, G/F, POK WAH HOUSE, POK HONG ESTATE, SHA TIN, NEW TERRITORIES",新界沙田 博康邨 博華樓 地下7及8號鋪,Sha Tin,沙田區,2997803068,2997803068,97,97,FF,FF,Mr Bakery,麵飽先生,,,15/7/2025,15/7/2025,22.3751291,114.1931374,22/7/2024,826215.2453,837942.9036,837942.9036,826215.2453
Food Licences (except Restaurant Licences),食物業處所牌照(食肆牌照除外),Food Factory Licence,食物製造廠,"G/F, TAI WAI VILLAGE, 8 EIGHTH STREET, TAI WAI, SHA TIN, NEW TERRITORIES",新界沙田大圍 大圍村第八街 八號地鋪,Sha Tin,沙田區,2997001936,2997001936,97,97,FF,FF,坤記腸粉,坤記腸粉,,,26/11/2025,26/11/2025,22.37580185,114.1781462,14/11/2024,826289.6521,836398.9812,836398.9812,826289.6521
Food Licences (except Restaurant Licences),食物業處所牌照(食肆牌照除外),Food Factory Licence,食物製造廠,"41A SHOP G, ON SHUN MANSION, 30-51 CHIK SHUN STREET, TAI WAI, SHA TIN, NEW TERRITORIES",新界沙田大圍 積信街30-51號 安信樓41A號G鋪,Sha Tin,沙田區,2997000456,2997000456,97,97,FF,FF,百寶雞,百寶雞,,,30/9/2025,30/9/2025,22.37648587,114.1780901,19/9/2024,826365.3975,836393.2039,836393.2039,826365.3975
Food Licences (except Restaurant Licences),食物業處所牌照(食肆牌照除外),Food Factory Licence,食物製造廠,"PORTION OF G/F (FOOD HANDLING AREA), 1ST-4TH MEZZANINE FLOOR & 2/F, THE HONG KONG JOCKEY CLUB SHATIN RACECOURSE - GRANDSTAND II, SHA TIN, NEW TERRITORIES",新界沙田 香港賽馬會 沙田馬場2號看台 地下部份1-4樓及2樓,Sha Tin,沙田區,2997000289,2997000289,97,97,FF,FF,The Hong Kong Jockey Club,香港賽馬會,#J,#J,30/9/2025,30/9/2025,22.39930286,114.2030287,29/7/2024,828892.2852,838961.1231,838961.1231,828892.2852
Food Licences (except Restaurant Licences),食物業處所牌照(食肆牌照除外),Food Factory Licence,食物製造廠,"SHOP 235 (PORTION B), LEVEL 2, COMMERCIAL CENTRE, HENG ON ESTATE, MA ON SHAN, SHA TIN, NEW TERRITORIES",新界沙田馬鞍山 恆安邨商場 2樓235號(B部份)鋪,Sha Tin,沙田區,2997001990,2997001990,97,97,FF,FF,7-ELEVEN,7-ELEVEN,,,29/1/2026,29/1/2026,22.4167292,114.2278602,26/11/2024,830822.6635,841517.3876,841517.3876,830822.6635
Food Licences (except Restaurant Licences),食物業處所牌照(食肆牌照除外),Food Factory Licence,食物製造廠,"PORTION OF SHOP 2C, G/F, BLOCK NPQR, SUNSHINE CITY, MA ON SHAN, SHA TIN, NEW TERRITORIES",新界沙田馬鞍山 新港城NPQR座 地下2C號部份鋪,Sha Tin,沙田區,2997002735,2997002735,97,97,FF,FF,味の店,味の店,,,7/8/2025,7/8/2025,22.42280016,114.2313272,31/7/2024,831495.0627,841874.0966,841874.0966,831495.0627
Food Licences (except Restaurant Licences),食物業處所牌照(食肆牌照除外),Food Factory Licence,食物製造廠,"SHOPSTALL NO S63, G/F, MARKET, SUNSHINE CITY PLAZA, MA ON SHAN, SHA TIN, NEW TERRITORIES",新界沙田馬鞍山 新港城中心街市 地下S63號檔,Sha Tin,沙田區,2997000906,2997000906,97,97,FF,FF,義發,義發,,,22/4/2025,22/4/2025,22.42416917,114.2312961,7/3/2024,831646.6605,841870.8426,841870.8426,831646.6605
Food Licences (except Restaurant Licences),食物業處所牌照(食肆牌照除外),Food Factory Licence,食物製造廠,"SHOP G25 & G26, G/F, SADDLE RIDGE GARDEN, 6 KAM YING ROAD, MA ON SHAN, SHA TIN, NEW TERRITORIES",新界沙田馬鞍山 錦英路6號 富寶花園地下 G25及G26號鋪,Sha Tin,沙田區,2997002221,2997002221,97,97,FF,FF,好佳坊有限公司,好佳坊有限公司,,,17/12/2025,17/12/2025,22.4240311,114.2360827,14/1/2025,831631.5581,842363.6394,842363.6394,831631.5581
Food Licences (except Restaurant Licences),食物業處所牌照(食肆牌照除外),Food Factory Licence,食物製造廠,"UNIT A, 10/F, BLOCK 2 KIN HO IND'L BUILDING, 14-24 AU PUI WAN STREET, FO TAN, SHA TIN, NEW TERRITORIES",新界沙田火炭 坳背灣街14-24號 金豪工業大廈 第2座10樓A室,Sha Tin,沙田區,2997000207,2997000207,97,97,FF,FF,培記粉麵,培記粉麵,,,30/9/2025,30/9/2025,22.397846,114.1954049,27/9/2024,828730.8418,838176.1194,838176.1194,828730.8418
Food Licences (except Restaurant Licences),食物業處所牌照(食肆牌照除外),Food Factory Licence,食物製造廠,"FLAT NOS 17 & 18, 16/F, WAH SANG IND'L BUILDING, 14-18 WONG CHUK YEUNG STREET, FO TAN, SHA TIN, NEW TERRITORIES",新界沙田火炭 黃竹洋街14-18號 華生工業大廈 16樓17及18室,Sha Tin,沙田區,2997000623,2997000623,97,97,FF,FF,振安食品廠,振安食品廠,,,30/9/2025,30/9/2025,22.3984173,114.1898081,31/7/2024,828794.0447,837599.8018,837599.8018,828794.0447
Food Licences (except Restaurant Licences),食物業處所牌照(食肆牌照除外),Food Factory Licence,食物製造廠,"FLAT A, 17/F, UNIVERSAL IND'L CENTRE, STTL 72-73, 23-25 SHAN MEI STREET, FO TAN, SHA TIN, NEW TERRITORIES",新界沙田火炭 沙田市地段第72-73號 山尾街23-25號 宇宙工業中心17樓A室,Sha Tin,沙田區,2997000085,2997000085,97,97,FF,FF,冠環球,冠環球,,,30/9/2025,30/9/2025,22.3970865,114.1928455,17/7/2024,828646.7077,837912.5825,837912.5825,828646.7077
Food Licences (except Restaurant Licences),食物業處所牌照(食肆牌照除外),Food Factory Licence,食物製造廠,"SHOP NO G2, KINGLET IND'L BUILDING, 21-23 SHING WAN ROAD, TAI WAI, SHA TIN, NEW TERRITORIES",新界沙田大圍 成運路21-23號 群力工業大廈 G2號鋪,Sha Tin,沙田區,2997000757,2997000757,97,97,FF,FF,裕昌,裕昌,,,30/9/2025,30/9/2025,22.3759596,114.1808597,5/8/2024,826307.1257,836678.4401,836678.4401,826307.1257
Food Licences (except Restaurant Licences),食物業處所牌照(食肆牌照除外),Food Factory Licence,食物製造廠,"SHOP 5C, G/F, WAH SANG IND'L BUILDING, 14-18 WONG CHUK YEUNG STREET, FO TAN, SHA TIN, NEW TERRITORIES",新界沙田火炭黃竹洋街14-18號華生工業 大廈地下5C號鋪,Sha Tin,沙田區,2997001051,2997001051,97,97,FF,FF,球記,球記,,,15/6/2025,15/6/2025,22.3982213,114.1900137,23/5/2024,828772.3424,837620.9746,837620.9746,828772.3424
Food Licences (except Restaurant Licences),食物業處所牌照(食肆牌照除外),Food Factory Licence,食物製造廠,"SHOP NO G6, G/F, WET MARKET, SADDLE RIDGE GARDEN COMM CENTRE, STTL 352, SADDLE RIDGE GARDEN, MA ON SHAN, SHA TIN, NEW TERRITORIES",新界沙田馬鞍山 沙田市地段第352號 富寶花園商場街市 地下G6號鋪,Sha Tin,沙田區,2997001097,2997001097,97,97,FF,FF,利苑,利苑,,,14/8/2025,14/8/2025,22.423897,114.239206,18/7/2024,831616.8386,842685.1969,842685.1969,831616.8386
Food Licences (except Restaurant Licences),食物業處所牌照(食肆牌照除外),Food Factory Licence,食物製造廠,"UNIT 7, 18/F, BLOCK B, WAH LUEN IND'L CENTRE, 15-21 WONG CHUK YEUNG STREET, FO TAN, SHA TIN, NEW TERRITORIES",新界沙田火炭 黃竹洋街15-21號 華聯工業中心 B座18樓7室,Sha Tin,沙田區,2997001334,2997001334,97,97,FF,FF,永豐燒臘批發有限公司,永豐燒臘批發有限公司,,,24/5/2025,24/5/2025,22.3979187,114.1895523,25/4/2024,828738.8296,837573.4665,837573.4665,828738.8296
Food Licences (except Restaurant Licences),食物業處所牌照(食肆牌照除外),Factory Canteen Licence,工廠食堂,"BLOCK 8, 2/F, WAH LUEN IND'L CENTRE, 15-21 WONG CHUK YEUNG STREET, FO TAN, SHA TIN, NEW TERRITORIES",新界沙田火炭 黃竹洋街15-21號 華聯工業中心 2字樓8號,Sha Tin,沙田區,2597000072,2597000072,97,97,FE,FE,新華聯食堂,新華聯食堂,,,30/6/2025,30/6/2025,22.398031,114.189395,28/5/2024,828751.2639,837557.268,837557.268,828751.2639
Food Licences (except Restaurant Licences),食物業處所牌照(食肆牌照除外),Food Factory Licence,食物製造廠,"PORTION B OF SHOP NOS 201-202 LEVEL 2, BAYSHORE TOWERS, MA ON SHAN PLAZA, SHA TIN, NEW TERRITORIES",新界沙田 馬鞍山廣場 海栢花園2樓 201至202號鋪B部份,Sha Tin,沙田區,2997002124,2997002124,97,97,FF,FF,7-Eleven,7-Eleven,,,14/8/2025,14/8/2025,22.4254539,114.2317216,27/6/2024,831788.9429,841914.5959,841914.5959,831788.9429
Food Licences (except Restaurant Licences),食物業處所牌照(食肆牌照除外),Factory Canteen Licence,工廠食堂,"SHOP NOS 36 & 37, 3/F, GOLDFIELD IND'L CENTRE, STTL 112, 1 SUI WO ROAD, FO TAN, SHA TIN, NEW TERRITORIES",新界沙田火炭 沙田市地段112號 穗禾路1號 豐利工業中心3字樓36及37號鋪,Sha Tin,沙田區,2597000090,2597000090,97,97,FE,FE,心美小廚,心美小廚,,,30/6/2025,30/6/2025,22.3974103,114.1921453,17/6/2024,828682.5565,837840.4777,837840.4777,828682.5565
Food Licences (except Restaurant Licences),食物業處所牌照(食肆牌照除外),Food Factory Licence,食物製造廠,"LEVEL 3 (MINOR PORTION), COFFEE CORNER, ROYAL PARK HOTEL, 8 PAK HOK TING STREET, SHA TIN, NEW TERRITORIES",新界沙田 白鶴汀街8號 帝都酒店三樓(小部份) 咖啡角,Sha Tin,沙田區,2997800333,2997800333,97,97,FF,FF,Royal Delights,Royal Delights,,,21/11/2025,21/11/2025,22.3803627,114.1883658,11/9/2024,826794.745,837451.4396,837451.4396,826794.745
Food Licences (except Restaurant Licences),食物業處所牌照(食肆牌照除外),Food Factory Licence,食物製造廠,"WORKSHOP 5-7 & PORTION OF 8, 7/F, WAH WAI CENTRE, 38-40 AU PUI WAN STREET, FO TAN, SHA TIN, NEW TERRITORIES",新界沙田火炭 坳背灣街38-40號 華衛工貿中心 7樓5-7號工場及8號工場部份,Sha Tin,沙田區,2997800342,2997800342,97,97,FF,FF,Haagen Dazs,Haagen Dazs,,,23/11/2025,23/11/2025,22.400112,114.1927027,23/10/2024,828981.7372,837897.8427,837897.8427,828981.7372
Food Licences (except Restaurant Licences),食物業處所牌照(食肆牌照除外),Food Factory Licence,食物製造廠,"1/F (MINOR PORTION), NO.15 AND G/F, NO.12, PAI TAU VILLAGE, SHA TIN, NEW TERRITORIES",新界沙田排頭村12號地下及15號1樓(小部份),Sha Tin,沙田區,2997800050,2997800050,97,97,FF,FF,YUMMY CAT,為食貓,,,26/1/2026,26/1/2026,22.3846378,114.186078,10/1/2025,827268.1343,837215.8024,837215.8024,827268.1343
Food Licences (except Restaurant Licences),食物業處所牌照(食肆牌照除外),Food Factory Licence,食物製造廠,"SHOP  7C, LEVEL 1, WAH YIU INDUSTRIAL CENTRE, 30-32 AU PUI WAN STREET, FO TAN, SHA TIN, NEW TERRITORIES",新界沙田火炭 坳背灣街30-32號 華耀工業中心 L1樓7號C鋪,Sha Tin,沙田區,2997800157,2997800157,97,97,FF,FF,CHIT KAI STORE,捷佳士多,,,6/3/2026,6/3/2026,22.3992087,114.194003,5/2/2025,828881.7243,838031.7461,838031.7461,828881.7243
Food Licences (except Restaurant Licences),食物業處所牌照(食肆牌照除外),Food Factory Licence,食物製造廠,"ROOM K, 8/F, VALIANT INDUSTRIAL CENTRE, 2-12 AU PUI WAN STREET, FO TAN, SHA TIN, NEW TERRITORIES",新界沙田火炭 坳背灣街2-12號 威力工業中心8樓K室,Sha Tin,沙田區,2997800209,2997800209,97,97,FF,FF,J-SWEETS CO LTD,J-SWEETS CO LTD,,,7/5/2025,7/5/2025,22.3973884,114.1961394,10/4/2024,828680.1787,838251.7586,838251.7586,828680.1787
Food Licences (except Restaurant Licences),食物業處所牌照(食肆牌照除外),Food Factory Licence,食物製造廠,"SHOP E1, G/F, UNIVERSAL INDUSTRIAL CENTRE, 23-25 SHAN MEI STREET, FO TAN, SHA TIN, NEW TERRITORIES",新界沙田火炭 山尾街23-25號 宇宙工業中心 地下E1鋪,Sha Tin,沙田區,2997800254,2997800254,97,97,FF,FF,Carol Bakery,嘉樂麵飽西餅,,,21/8/2025,21/8/2025,22.3970865,114.1928455,10/9/2024,828646.7077,837912.5825,837912.5825,828646.7077
Food Licences (except Restaurant Licences),食物業處所牌照(食肆牌照除外),Factory Canteen Licence,工廠食堂,"UNIT 2, G/F, TOPSAIL PLAZA, 11 ON SUM STREET, SHA TIN, NEW TERRITORIES",新界沙田 安心街11號 華順廣場 地下2室,Sha Tin,沙田區,2597800038,2597800038,97,97,FE,FE,咀留香食堂,咀留香食堂,,,10/9/2025,10/9/2025,22.391145,114.209143,13/9/2024,827989.0411,839590.9145,839590.9145,827989.0411
Food Licences (except Restaurant Licences),食物業處所牌照(食肆牌照除外),Food Factory Licence,食物製造廠,"UNIT M-P, 4/F, YUE CHEUNG CENTRE, 1-3 WONG CHUK YEUNG STREET, FO TAN, SHA TIN, NEW TERRITORIES",新界沙田火炭 黃竹洋街1-3號 裕昌中心 4樓M-P室,Sha Tin,沙田區,2997800315,2997800315,97,97,FF,FF,Qualifresh Catering Limited,優鮮食品有限公司,,,19/10/2025,19/10/2025,22.3968892,114.1910307,9/9/2024,828624.8408,837725.7105,837725.7105,828624.8408
Food Licences (except Restaurant Licences),食物業處所牌照(食肆牌照除外),Food Factory Licence,食物製造廠,"PORTION OF SHOP 4, LEVEL 2, PHASE 1, BELAIR GARDEN SHOPPING ARCADE, 52 TAI CHUNG KIU ROAD, SHA TIN, NEW TERRITORIES",新界沙田 大涌橋路52號 富豪花園商場1期 2樓4號鋪部份,Sha Tin,沙田區,2997800351,2997800351,97,97,FF,FF,A P CAFE,A P CAFE,,,28/11/2025,28/11/2025,22.3850236,114.1987218,4/12/2024,827310.9908,838517.8729,838517.8729,827310.9908
Food Licences (except Restaurant Licences),食物業處所牌照(食肆牌照除外),Food Factory Licence,食物製造廠,"SHOP C5, LG/F, VALIANT INDUSTRIAL CENTRE, 2-12 AU PUI WAN STREET, FO TAN, SHA TIN, NEW TERRITORIES",新界沙田火炭 坳背灣街2-12號 威力工業中心 低層地下C5號鋪,Sha Tin,沙田區,2997800634,2997800634,97,97,FF,FF,KIJI,KIJI,,,6/1/2026,6/1/2026,22.3973884,114.1961394,30/10/2024,828680.1787,838251.7586,838251.7586,828680.1787
Food Licences (except Restaurant Licences),食物業處所牌照(食肆牌照除外),Factory Canteen Licence,工廠食堂,"SHOP NO. 4, G/F, LEADER INDUSTRIAL CENTRE, 57-59 AU PUI WAN STREET, SHA TIN, NEW TERRITORIES",新界沙田 坳背灣街57-59號 利達工業中心 地下4號鋪,Sha Tin,沙田區,2597800065,2597800065,97,97,FE,FE,FIRST KITCHEN,第壹間,,,15/1/2026,15/1/2026,22.3992402,114.1927027,13/1/2025,828885.1978,837897.8529,837897.8529,828885.1978
Food Licences (except Restaurant Licences),食物業處所牌照(食肆牌照除外),Factory Canteen Licence,工廠食堂,"SHOP C1, LG/F, VALIANT INDUSTRIAL CENTRE, 2-12 AU PUI WAN STREET, FO TAN, SHA TIN, NEW TERRITORIES",新界沙田火炭 坳背灣街2-12號 威力工業中心 低層地下C1號鋪,Sha Tin,沙田區,2597800092,2597800092,97,97,FE,FE,金多玥,金多玥,,,1/4/2025,1/4/2025,22.3973884,114.1961394,2/4/2024,828680.1787,838251.7586,838251.7586,828680.1787
Food Licences (except Restaurant Licences),食物業處所牌照(食肆牌照除外),Food Factory Licence,食物製造廠,"SHOP NO. 8, G/F, WET MARKET, CHEVALIER GARDEN COMMERCIAL COMPLEX, 2 HANG SHUN STREET, MA ON SHAN, SHA TIN, NEW TERRITORIES",新界沙田馬鞍山 恒信街2號鋪富安花園商場 街市地下8號,Sha Tin,沙田區,2997800689,2997800689,97,97,FF,FF,糖佳八好,糖佳八好,,,30/1/2026,30/1/2026,22.404843,114.224048,10/1/2025,829506.3056,841125.3053,841125.3053,829506.3056
Food Licences (except Restaurant Licences),食物業處所牌照(食肆牌照除外),Food Factory Licence,食物製造廠,"ROOM 11, 8/F, BLOCK A, VERISTRONG INDUSTRIAL CENTRE, 36 AU PUI WAN STREET, SHA TIN, NEW TERRITORIES",新界沙田 坳背灣街36號 豐盛工業中心A座 8樓11室,Sha Tin,沙田區,2997800519,2997800519,97,97,FF,FF,炳記麵廠,炳記麵廠,,,27/9/2025,27/9/2025,22.39961,114.193317,4/10/2024,828926.1547,837961.1033,837961.1033,828926.1547
Food Licences (except Restaurant Licences),食物業處所牌照(食肆牌照除外),Factory Canteen Licence,工廠食堂,"UNIT C1, G/F,  BLOCK 1, KIN HO INDUSTRIAL BUILDING, 14-24 AU PUI WAN STREET, FO TAN, SHA TIN, NEW TERRITORIES",新界沙田火炭 坳背灣街14-24號 金豪工業大廈 第1座地下C1單位,Sha Tin,沙田區,2597800117,2597800117,97,97,FE,FE,Manson Canteen,民生食堂,,,4/2/2026,4/2/2026,22.397846,114.1954049,14/1/2025,828730.8418,838176.1194,838176.1194,828730.8418
Food Licences (except Restaurant Licences),食物業處所牌照(食肆牌照除外),Food Factory Licence,食物製造廠,"7/F, BLOCK J, FU CHEUNG CENTRE, 5-7 WONG CHUK YEUNG STREET, FO TAN, SHA TIN, NEW TERRITORIES",新界沙田火炭 黃竹洋街5-7號 富昌中心7樓J室,Sha Tin,沙田區,2997800625,2997800625,97,97,FF,FF,咖啡豆製造,咖啡豆製造,,,12/12/2025,12/12/2025,22.3971518,114.1904734,5/12/2024,828653.9147,837668.3213,837668.3213,828653.9147
Food Licences (except Restaurant Licences),食物業處所牌照(食肆牌照除外),Factory Canteen Licence,工廠食堂,"WORKSHOP 11, G/F, NEW TRADE PLAZA, 6 ON PING STREET, SHA TIN, NEW TERRITORIES",新界沙田 安平路6號 新貿中心地下 11號鋪,Sha Tin,沙田區,2597800108,2597800108,97,97,FE,FE,永興,永興,,,13/12/2025,13/12/2025,22.3906398,114.2073782,7/11/2024,827933.0595,839409.1926,839409.1926,827933.0595
Food Licences (except Restaurant Licences),食物業處所牌照(食肆牌照除外),Factory Canteen Licence,工廠食堂,"WORKSHOP NO. 10 (MAJOR PORTION), LEVEL 1, WAH YIU INDUSTRIAL CENTRE, 30-32 AU PUI WAN STREET, FO TAN, SHA TIN, NEW TERRITORIES",新界沙田火炭 坳背灣街30-32號 華耀工業中心 第一層10號(主要部份),Sha Tin,沙田區,2597800126,2597800126,97,97,FE,FE,南苑點心食堂,南苑點心食堂,,,24/2/2026,24/2/2026,22.3992087,114.194003,22/1/2025,828881.7243,838031.7461,838031.7461,828881.7243
Food Licences (except Restaurant Licences),食物業處所牌照(食肆牌照除外),Food Factory Licence,食物製造廠,"SHOP NO. G66, PLAZA ASCOT, FO TAN, SHA TIN, NEW TERRITORIES",新界沙田火炭 駿景廣場G66號鋪,Sha Tin,沙田區,2997800698,2997800698,97,97,FF,FF,HUNG FOOK TONG,鴻福堂,,,25/2/2026,25/2/2026,22.3988936,114.2013472,23/12/2024,828846.9363,838787.9892,838787.9892,828846.9363
Food Licences (except Restaurant Licences),食物業處所牌照(食肆牌照除外),Food Factory Licence,食物製造廠,"PORTION OF UNIT 5, UNIT 6-14, PORTION OF UNIT 15, 11/F, WAH SANG INDUSTRIAL BUILDING, 14-18 WONG CHUK YEUNG STREET, FO TAN, SHA TIN, NEW TERRITORIES",新界沙田火炭 黃竹洋街14-18號 華生工業大廈11樓5號單位部分、 6至14號單位及15號單位部分,Sha Tin,沙田區,2997800980,2997800980,97,97,FF,FF,燊興食品製造廠有限公司,燊興食品製造廠有限公司,,,23/7/2025,23/7/2025,22.3982213,114.1900137,17/7/2024,828772.3424,837620.9746,837620.9746,828772.3424
Food Licences (except Restaurant Licences),食物業處所牌照(食肆牌照除外),Food Factory Licence,食物製造廠,"SHOP NO. G43, GROUND FLOOR, CITY ONE PLAZA, CITY ONE, SHA TIN, NEW TERRITORIES",新界沙田 銀城街1號 第一城中心地下 G43號鋪,Sha Tin,沙田區,2997800883,2997800883,97,97,FF,FF,Saint Honore Cake Shop,聖安娜餅屋,,,27/5/2025,27/5/2025,22.3861716,114.2036629,28/3/2024,827438.1976,839026.6904,839026.6904,827438.1976
Food Licences (except Restaurant Licences),食物業處所牌照(食肆牌照除外),Food Factory Licence,食物製造廠,"FLAT 4, 7/F, WAH WAI CENTRE, 38-40 AU PUI WAN STREET, FO TAN, SHA TIN, NEW TERRITORIES",新界沙田火炭 坳背灣街38-40號 華衛工貿中心7樓4室,Sha Tin,沙田區,2997800731,2997800731,97,97,FF,FF,ADVANCE FROZEN MEAT CO.,先進凍肉公司,,,12/3/2026,12/3/2026,22.400112,114.1927027,27/1/2025,828981.7372,837897.8427,837897.8427,828981.7372
Food Licences (except Restaurant Licences),食物業處所牌照(食肆牌照除外),Food Factory Licence,食物製造廠,"FLAT H1, LG/F, VALIANT INDUSTRIAL CENTRE, 10-12 AU PUI WAN STREET, FO TAN, SHA TIN, NEW TERRITORIES",新界沙田火炭 坳背灣街10-12號 威力工業中心 低層地下H1室,Sha Tin,沙田區,2997800722,2997800722,97,97,FF,FF,蒸心●燉靚湯,蒸心●燉靚湯,,,10/3/2025,10/3/2025,22.397405,114.196183,10/4/2024,828682.0175,838256.2479,838256.2479,828682.0175
Food Licences (except Restaurant Licences),食物業處所牌照(食肆牌照除外),Food Factory Licence,食物製造廠,"SHOP 109, MEI TIN SHOPPING CENTRE, MEI TIN ESTATE, TAI WAI, SHA TIN, NEW TERRITORIES",新界沙田大圍 美田邨美田商場 109號鋪,Sha Tin,沙田區,2997800892,2997800892,97,97,FF,FF,奧莎,奧莎,,,2/6/2025,2/6/2025,22.375928,114.1700892,28/5/2024,826303.6364,835569.2097,835569.2097,826303.6364
Food Licences (except Restaurant Licences),食物業處所牌照(食肆牌照除外),Food Factory Licence,食物製造廠,"UNIT 1-4, PORTION OF UNIT 5 & UNIT 18, UNIT 19-20 AT 11/F. & PORTION OF UNIT 12 AT 2/F, WAH SANG INDUSTRIAL BUILDING, 14-18 WONG CHUK YEUNG STREET, FO TAN, SHA TIN, NEW TERRITORIES","新界沙田火炭黃竹洋街14-18號華生工業大廈11字樓 1-4號單位, 5及18號部份單位, 19-20號單位及2字 樓12號部份單位",Sha Tin,沙田區,2997801008,2997801008,97,97,FF,FF,ORIGINAL TASTE CATERING COMPANY LIMITED,原味餐飲有限公司,,,12/8/2025,12/8/2025,22.3982213,114.1900137,31/7/2024,828772.3424,837620.9746,837620.9746,828772.3424
Food Licences (except Restaurant Licences),食物業處所牌照(食肆牌照除外),Food Factory Licence,食物製造廠,"SHOP 102, LEVEL 1, NEW TOWN PLAZA, PHASE I, SHA TIN, NEW TERRITORIES",新界沙田 新城市廣場1期 第一層102號鋪,Sha Tin,沙田區,2997800759,2997800759,97,97,FF,FF,A-1 Bakery,A-1 Bakery,,,25/3/2026,25/3/2026,22.3817578,114.1886372,21/2/2025,826949.2343,837479.3775,837479.3775,826949.2343
Food Licences (except Restaurant Licences),食物業處所牌照(食肆牌照除外),Food Factory Licence,食物製造廠,"FLAT 1102, 11/F, WAH WAI CENTRE, 38-40 AU PUI WAN STREET, FO TAN, SHA TIN, NEW TERRITORIES",新界沙田火炭 坳背灣街38-40號 華衞工貿中心 11樓1102單位,Sha Tin,沙田區,2997800926,2997800926,97,97,FF,FF,銀杏館,銀杏館,,,16/6/2025,16/6/2025,22.400112,114.1927027,8/5/2024,828981.7372,837897.8427,837897.8427,828981.7372
Food Licences (except Restaurant Licences),食物業處所牌照(食肆牌照除外),Food Factory Licence,食物製造廠,"SHOP 39, G/F, WAH LUEN INDUSTRIAL CENTRE, 15-21 WONG CHUK YEUNG STREET, FO TAN, SHA TIN, NEW TERRITORIES",新界沙田火炭 黃竹洋街15-21號 華聯工業大厦 地下39號鋪,Sha Tin,沙田區,2997800643,2997800643,97,97,FF,FF,TAI FEI LOK,大快樂,#J,#J,9/1/2026,9/1/2026,22.398031,114.189395,31/12/2024,828751.2639,837557.268,837557.268,828751.2639
Food Licences (except Restaurant Licences),食物業處所牌照(食肆牌照除外),Food Factory Licence,食物製造廠,"PORTION A OF SHOP 1, CHUNG ON SHOPPING CENTRE, CHUNG ON ESTATE, MA ON SHAN, SHA TIN, NEW TERRITORIES",新界沙田馬鞍山 頌安邨頌安商場 1號鋪A部份,Sha Tin,沙田區,2997800573,2997800573,97,97,FF,FF,CIRCLE K,CIRCLE K,,,25/11/2025,25/11/2025,22.422178,114.226646,15/10/2024,831426.0003,841392.1761,841392.1761,831426.0003
Food Licences (except Restaurant Licences),食物業處所牌照(食肆牌照除外),Food Factory Licence,食物製造廠,"PORTION B OF SHOP NO. 53, G/F, MING SHUN LAU, JAT MIN CHUEN, SHA TIN, NEW TERRITORIES",新界沙田 乙明邨明信樓 地下53號鋪B部份,Sha Tin,沙田區,2997800582,2997800582,97,97,FF,FF,7-ELEVEN,7-ELEVEN,,,26/11/2025,26/11/2025,22.3764367,114.1910772,20/9/2024,826360.0214,837730.7132,837730.7132,826360.0214
Food Licences (except Restaurant Licences),食物業處所牌照(食肆牌照除外),Food Factory Licence,食物製造廠,"WORKSHOP NO. 10 (MINOR PORTION), LEVEL 1, WAH YIU INDUSTRIAL CENTRE, 30-32 AU PUI WAN STREET, FO TAN, SHA TIN, NEW TERRITORIES",新界沙田火炭 坳背灣街30-32號 華耀工業中心第一層 10號(次要部份),Sha Tin,沙田區,2997800661,2997800661,97,97,FF,FF,南苑點心小厨,南苑點心小厨,,,28/1/2026,28/1/2026,22.3992087,114.194003,22/1/2025,828881.7243,838031.7461,838031.7461,828881.7243
Food Licences (except Restaurant Licences),食物業處所牌照(食肆牌照除外),Food Factory Licence,食物製造廠,"PORTION B OF SHOP NO. 9 & 10, POK YUE HOUSE, POK HONG ESTATE, SHA TIN, NEW TERRITORIES",新界沙田 博康邨博裕樓 9及10號鋪B部份,Sha Tin,沙田區,2997800962,2997800962,97,97,FF,FF,7-ELEVEN,7-ELEVEN,#H,#H,22/6/2025,22/6/2025,22.3751291,114.1931374,22/4/2024,826215.2453,837942.9036,837942.9036,826215.2453
Food Licences (except Restaurant Licences),食物業處所牌照(食肆牌照除外),Food Factory Licence,食物製造廠,"UNIT B2E, GROUND FLOOR, UNISON INDUSTRIAL CENTRE, 27-31 AU PUI WAN STREET, FO TAN, SHA TIN, NEW TERRITORIES",新界沙田火炭坳背灣街27-31號協興工業中心地下B2E號鋪,Sha Tin,沙田區,2997801123,2997801123,97,97,FF,FF,PIZZA HUT,必勝客,,,10/11/2025,10/11/2025,22.3968516,114.195675,16/10/2024,828620.7297,838203.9458,838203.9458,828620.7297
Food Licences (except Restaurant Licences),食物業處所牌照(食肆牌照除外),Food Factory Licence,食物製造廠,"SHOP NO. 29, G/F, HOLFORD GARDEN, TAI WAI, SHA TIN, NEW TERRITORIES",新界沙田大圍海福花園地下29號鋪,Sha Tin,沙田區,2997801141,2997801141,97,97,FF,FF,豪源,豪源,,,13/11/2025,13/11/2025,22.3733617,114.1762191,12/12/2024,826019.4407,836200.5137,836200.5137,826019.4407
Food Licences (except Restaurant Licences),食物業處所牌照(食肆牌照除外),Food Factory Licence,食物製造廠,"MTR STATION KIOSK NO. STW 10 AT SHA TIN WAI STATION, SHA TIN, NEW TERRITORIES",新界沙田沙田圍港鐵站10號鋪,Sha Tin,沙田區,2997801257,2997801257,97,97,FF,FF,HUNG FOOK TONG,鴻福堂,,,15/2/2026,15/2/2026,22.377077,114.194698,23/12/2024,826430.9651,838103.6018,838103.6018,826430.9651
Food Licences (except Restaurant Licences),食物業處所牌照(食肆牌照除外),Food Factory Licence,食物製造廠,"SHOP C215, LEVEL 2, LEK YUEN SHOPPING CENTRE, LEK YUEN ESTATE, SHA TIN, NEW TERRITORIES",新界沙田瀝源邨瀝源商場第2層C215號鋪,Sha Tin,沙田區,2997801266,2997801266,97,97,FF,FF,APPOLO (MAGIC HOUSE) SUPERSTORE LIMITED,APPOLO (MAGIC HOUSE) SUPERSTORE LIMITED,,,16/2/2026,16/2/2026,22.384186,114.1907288,20/1/2025,827218.1408,837694.7531,837694.7531,827218.1408
Food Licences (except Restaurant Licences),食物業處所牌照(食肆牌照除外),Food Factory Licence,食物製造廠,"SHOP C3, G/F, PHASE 1, KINHO INDUSTRIAL CENTRE, 14-24 AU PUI WAN STREET, FO TAN, SHA TIN, NEW TERRITORIES",新界沙田火炭坳背灣街14-24號金豪工業大廈第1期地下C3號 鋪,Sha Tin,沙田區,2997801202,2997801202,97,97,FF,FF,老友記,老友記,,,15/12/2025,15/12/2025,22.397846,114.1954049,9/12/2024,828730.8418,838176.1194,838176.1194,828730.8418
Food Licences (except Restaurant Licences),食物業處所牌照(食肆牌照除外),Food Factory Licence,食物製造廠,"FLAT 3, 4 & 5, 7/F, BLOCK A, WAH LUEN INDUSTRIAL CENTRE, 15-21 WONG CHUK YEUNG STREET, FO TAN, SHA TIN, NEW TERRITORIES","新界沙田火炭黃竹洋街15-21號華聯工業中心A座7樓   3, 4 及5 室",Sha Tin,沙田區,2997801406,2997801406,97,97,FF,FF,廚神工房,廚神工房,,,14/6/2025,14/6/2025,22.3980314,114.1895481,7/5/2024,828751.3095,837573.0329,837573.0329,828751.3095
Food Licences (except Restaurant Licences),食物業處所牌照(食肆牌照除外),Food Factory Licence,食物製造廠,"MAJOR PORTION OF UNIT 5, 15/F, WAH WAI CENTRE, 38-40 AU PUI WAN STREET, FO TAN, SHA TIN, NEW TERRITORIES",新界沙田火炭坳背灣街38-40號華衛中心15樓5室主要部分,Sha Tin,沙田區,2997801415,2997801415,97,97,FF,FF,PRIDE FAME LIMITED,驕榮有限公司,,,15/6/2025,15/6/2025,22.400112,114.1927027,16/7/2024,828981.7372,837897.8427,837897.8427,828981.7372
Food Licences (except Restaurant Licences),食物業處所牌照(食肆牌照除外),Food Factory Licence,食物製造廠,"UNIT G, 11/F, ON WAH INDUSTRIAL BUILDING, 41-43 AU PUI WAN STREET, FO TAN, SHA TIN, NEW TERRITORIES",新界沙田火炭坳背灣街41-43號 安華工業大厦11樓G單位,Sha Tin,沙田區,2997801424,2997801424,97,97,FF,FF,CHARLES,CHARLES,,,16/6/2025,16/6/2025,22.3977532,114.1946206,21/6/2024,828720.5558,838095.3599,838095.3599,828720.5558
Food Licences (except Restaurant Licences),食物業處所牌照(食肆牌照除外),Food Factory Licence,食物製造廠,"SHOP NO. 1, G/F, WAH FUNG HOUSE, LEK YUEN ESTATE, SHA TIN, NEW TERRITORIES",新界沙田瀝源邨華豐樓地下1號鋪,Sha Tin,沙田區,2997801309,2997801309,97,97,FF,FF,大哥小食,大哥小食,,,12/3/2025,12/3/2025,22.384355,114.1917274,31/1/2024,827236.8649,837797.5888,837797.5888,827236.8649
Food Licences (except Restaurant Licences),食物業處所牌照(食肆牌照除外),Food Factory Licence,食物製造廠,"FRONT PORTION OF UNIT 4, G/F, WAH SANG INDUSTRIAL BUILDING, 12-18 WONG CHUK YEUNG STREET, FO TAN, SHA TIN, NEW TERRITORIES",新界沙田火炭黃竹洋街12-18號華生工業大廈地下4號鋪 (前部份),Sha Tin,沙田區,2997801318,2997801318,97,97,FF,FF,Cafe Yummy,Cafe Yummy,,,18/3/2025,18/3/2025,22.3978756,114.1899368,7/2/2024,828734.0603,837613.0595,837613.0595,828734.0603
Food Licences (except Restaurant Licences),食物業處所牌照(食肆牌照除外),Food Factory Licence,食物製造廠,"SHOP NOS. 11 & 12, G/F, FORTUNE CITY ONE PLUS, CITY ONE, SHA TIN, NEW TERRITORIES",新界沙田第一城置富第一城‧樂薈地下11及12號鋪,Sha Tin,沙田區,2997801354,2997801354,97,97,FF,FF,紀香麵包物語,紀香麵包物語,,,22/3/2026,22/3/2026,22.3871904,114.2027341,23/1/2025,827550.9983,838931.0228,838931.0228,827550.9983
Food Licences (except Restaurant Licences),食物業處所牌照(食肆牌照除外),Food Factory Licence,食物製造廠,"UNIT 2-3, 3/F, BLOCK E, WAH LOK INDUSTRIAL CENTRE, 37-41 SHAN MEI STREET, FO TAN, SHA TIN, NEW TERRITORIES",新界沙田火炭山尾街37-41號華樂工業中心E座3樓2-3單位,Sha Tin,沙田區,2997801868,2997801868,97,97,FF,FF,YEW CHUNG CENTRAL KITCHEN,耀中中央廚房,#D,#D,28/2/2026,28/2/2026,22.3984586,114.1910307,6/2/2025,828798.6295,837725.6941,837725.6941,828798.6295
Food Licences (except Restaurant Licences),食物業處所牌照(食肆牌照除外),Food Factory Licence,食物製造廠,"UNIT 51, G/F, BLOCK B, WAH LUEN INDUSTRIAL CENTRE, 15-21 WONG CHUK YEUNG STREET, FO TAN, SHA TIN, NEW TERRITORIES",新界沙田火炭黃竹洋街15號至21號華聯工業中心 B座地下51號單位,Sha Tin,沙田區,2997801947,2997801947,97,97,FF,FF,飯聚兵團有限公司,飯聚兵團有限公司,,,27/4/2025,27/4/2025,22.3979187,114.1895523,19/2/2024,828738.8296,837573.4665,837573.4665,828738.8296
Food Licences (except Restaurant Licences),食物業處所牌照(食肆牌照除外),Food Factory Licence,食物製造廠,"UNIT L (PORTION), G/F, ON HO INDUSTRIAL BUILDING, 17-19 SHING WAN ROAD, TAI WAI, SHA TIN, NEW TERRITORIES",新界沙田大圍成運路17-19號安豪工業大廈地下L室(部份),Sha Tin,沙田區,2997801576,2997801576,97,97,FF,FF,TAYLOR SHELLFISH,TAYLOR SHELLFISH,#G#H,#G#H,26/10/2025,26/10/2025,22.3762358,114.1807668,12/8/2024,826337.7105,836668.8717,836668.8717,826337.7105
Food Licences (except Restaurant Licences),食物業處所牌照(食肆牌照除外),Food Factory Licence,食物製造廠,"UNIT 701-703, 705-707, 7/F, NEW COMMERCE CENTRE, 19 ON SUM STREET, SIU LEK YUEN, SHA TIN, NEW TERRITORIES","新界沙田小瀝源安心街19號滙貿中心7樓 701-703,705-707室",Sha Tin,沙田區,2997801664,2997801664,97,97,FF,FF,A-1 Bakery,A-1 Bakery,,,7/12/2025,7/12/2025,22.3891,114.2071925,31/10/2024,827762.5449,839390.1042,839390.1042,827762.5449
Food Licences (except Restaurant Licences),食物業處所牌照(食肆牌照除外),Food Factory Licence,食物製造廠,"ROOM 6, 8/F, BLOCK E, WAH LOK INDUSTRIAL CENTRE, 31-41 SHAN MEI STREET, FO TAN, SHA TIN, NEW TERRITORIES",新界沙田火炭山尾街31-41號華樂工業中心E座8樓6室,Sha Tin,沙田區,2997801691,2997801691,97,97,FF,FF,新口意食品有限公司,新口意食品有限公司,,,10/12/2025,10/12/2025,22.398455,114.191027,2/12/2024,828798.2308,837725.3131,837725.3131,828798.2308
Food Licences (except Restaurant Licences),食物業處所牌照(食肆牌照除外),Food Factory Licence,食物製造廠,"PORTION B OF SHOP NO. G110, G/F, YIU ON SHOPPING CENTRE, YIU ON ESTATE, MA ON SHAN, SHA TIN, NEW TERRITORIES",新界沙田馬鞍山耀安邨耀安商場地下G110號鋪B部份,Sha Tin,沙田區,2997801798,2997801798,97,97,FF,FF,7-ELEVEN FOOD STORE,七.十一便利店,#H,#H,17/1/2026,17/1/2026,22.4204629,114.2304123,26/11/2024,831236.2103,841779.9988,841779.9988,831236.2103
Food Licences (except Restaurant Licences),食物業處所牌照(食肆牌照除外),Food Factory Licence,食物製造廠,"PORTION B OF SHOP NO. 101, LEVEL 1, CASTELLO, 69 SIU LEK YUEN ROAD, SHA TIN, NEW TERRITORIES",新界沙田小瀝源路69號帝堡城第一層101鋪B部份,Sha Tin,沙田區,2997801813,2997801813,97,97,FF,FF,7-ELEVEN FOOD STORE,七.十一便利店,#H,#H,28/1/2026,28/1/2026,22.3833743,114.214934,26/11/2024,827128.6874,840187.4702,840187.4702,827128.6874
Food Licences (except Restaurant Licences),食物業處所牌照(食肆牌照除外),Food Factory Licence,食物製造廠,"PORTION A OF SHOP 18, G/F, GRANDWAY GARDEN, 16 MEI TIN ROAD AND 15 & 35 TSUEN NAM ROAD, SHA TIN, NEW TERRITORIES",新界沙田村南道15及35號和美田路16號富嘉花園地下 18號鋪A部份,Sha Tin,沙田區,2997801822,2997801822,97,97,FF,FF,潁記豆品,潁記豆品,,,28/1/2026,28/1/2026,22.373728,114.1779371,3/2/2025,826060.0033,836377.4497,836377.4497,826060.0033
Food Licences (except Restaurant Licences),食物業處所牌照(食肆牌照除外),Food Factory Licence,食物製造廠,"ROOM 7 & 8, 6/F, BLOCK A, WAH SANG INDUSTRIAL BUILDING, 14-18 WONG CHUK YEUNG STREET, FO TAN, SHA TIN, NEW TERRITORIES",新界沙田火炭黃竹洋街14-18號華生工業大廈A座6字樓 7及8室,Sha Tin,沙田區,2997801965,2997801965,97,97,FF,FF,GLOBAL FINE FOODS LIMITED,高寶食品有限公司,,,3/5/2025,3/5/2025,22.3982213,114.1900137,8/3/2024,828772.3424,837620.9746,837620.9746,828772.3424
Food Licences (except Restaurant Licences),食物業處所牌照(食肆牌照除外),Food Factory Licence,食物製造廠,"SHOP 5, G/F, SAND MARTIN HOUSE, SHA KOK ESTATE, 5 SHA KOK STREET, SHA TIN, NEW TERRITORIES",新界沙田沙角街5號沙角邨沙燕樓地下5號鋪,Sha Tin,沙田區,2997801895,2997801895,97,97,FF,FF,Q Dim Sim,Q點心,,,17/3/2026,17/3/2026,22.3768549,114.1943948,17/2/2025,826406.3671,838072.379,838072.379,826406.3671
Food Licences (except Restaurant Licences),食物業處所牌照(食肆牌照除外),Food Factory Licence,食物製造廠,"SHOP NO. G5, SUI WO COURT COMMERCIAL CENTRE, SUI WO COURT, SHA TIN, NEW TERRITORIES",新界沙田穗禾苑穗禾苑商場G5號鋪,Sha Tin,沙田區,2997801901,2997801901,97,97,FF,FF,SAINT HONORE CAKE SHOP,聖安娜餅屋,,,17/3/2025,17/3/2025,22.391994,114.194363,23/2/2024,828082.8036,838068.9087,838068.9087,828082.8036
Food Licences (except Restaurant Licences),食物業處所牌照(食肆牌照除外),Food Factory Licence,食物製造廠,"SHOP B8A, 1/F, SHA TIN GALLERIA, 18-24 SHAN MEI STREET, FO TAN, SHA TIN, NEW TERRITORIES",新界沙田火炭山尾街18-24號沙田商業中心1樓B8A號鋪,Sha Tin,沙田區,2997802135,2997802135,97,97,FF,FF,Gourmet Coffee,歌美咖啡店,,,12/9/2025,12/9/2025,22.3972442,114.1934135,27/8/2024,828664.1771,837971.0688,837971.0688,828664.1771
Food Licences (except Restaurant Licences),食物業處所牌照(食肆牌照除外),Food Factory Licence,食物製造廠,"STALL NO. 15, 1/F, LEK YUEN ESTATE MARKET, SHA TIN, NEW TERRITORIES",新界沙田瀝源邨街市一樓15號檔,Sha Tin,沙田區,2997802144,2997802144,97,97,FF,FF,姑媽小食,姑媽小食,,,13/9/2025,13/9/2025,22.384607,114.191214,30/9/2024,827264.7651,837744.7154,837744.7154,827264.7651
Food Licences (except Restaurant Licences),食物業處所牌照(食肆牌照除外),Food Factory Licence,食物製造廠,"FLAT 1204, 12/F, LEADER INDUSTRIAL CENTRE, 57-59 AU PUI WAN STREET, FO TAN, SHA TIN, NEW TERRITORIES",新界沙田火炭坳背灣街57-59號利達工業中心12樓1204室,Sha Tin,沙田區,2997802153,2997802153,97,97,FF,FF,CAKES KINGDOM LIMITED,蛋糕王國有限公司,,,14/9/2025,14/9/2025,22.399056,114.192882,21/10/2024,828864.8022,837916.3177,837916.3177,828864.8022
Food Licences (except Restaurant Licences),食物業處所牌照(食肆牌照除外),Food Factory Licence,食物製造廠,"FLAT 18, 8/F, BLOCK B, WAH SANG INDUSTRIAL BUILDING, 14-18 WONG CHUK YEUNG STREET, FO TAN, SHA TIN, NEW TERRITORIES",新界沙田火炭黃竹洋街14-18號華生工業大廈B座8樓18室,Sha Tin,沙田區,2997801910,2997801910,97,97,FF,FF,PROFIT SMART FOOD LIMITED,利駿食品有限公司,,,24/3/2026,24/3/2026,22.3984173,114.1898081,13/2/2025,828794.0447,837599.8018,837599.8018,828794.0447
Food Licences (except Restaurant Licences),食物業處所牌照(食肆牌照除外),Food Factory Licence,食物製造廠,"WORKSHOP 1-4, 1/F, SHING CHUEN INDUSTRIAL BUILDING, 25-27 SHING WAN ROAD, SHA TIN, NEW TERRITORIES",新界沙田成運路25-27號成全工業大廈1樓1-4號室,Sha Tin,沙田區,2997801929,2997801929,97,97,FF,FF,Shing Ming Food Processing Factory Company Limited,城名食品工場有限公司,#D#J,#D#J,29/3/2025,29/3/2025,22.3756324,114.180999,2/2/2024,826270.8934,836692.7873,836692.7873,826270.8934
Food Licences (except Restaurant Licences),食物業處所牌照(食肆牌照除外),Food Factory Licence,食物製造廠,"FLAT 1, 3/F, GOLDFIELD INDUSTRIAL CENTRE, 1 SUI WO ROAD, SHA TIN, NEW TERRITORIES",新界沙田穗禾路1號豐利工業中心3樓1室,Sha Tin,沙田區,2997802074,2997802074,97,97,FF,FF,EWO FOOD & CATERING LIMITED,意和食品及餐飲有限公司,,,29/7/2025,29/7/2025,22.3974103,114.1921453,12/6/2024,828682.5565,837840.4777,837840.4777,828682.5565
Food Licences (except Restaurant Licences),食物業處所牌照(食肆牌照除外),Food Factory Licence,食物製造廠,"STALL NO. 3, SHOP 7B AND 46-80, G/F, NGAN SHING COMMERCIAL CENTRE, CITY ONE, SHA TIN, NEW TERRITORIES",新界沙田第一城銀城商場地下7B號及46-80號鋪3號檔,Sha Tin,沙田區,2997802463,2997802463,97,97,FF,FF,PARK'N SHOP,PARK'N SHOP,#G#H,#G#H,15/3/2026,15/3/2026,22.386723,114.203232,20/2/2025,827499.2494,838982.3054,838982.3054,827499.2494
Food Licences (except Restaurant Licences),食物業處所牌照(食肆牌照除外),Food Factory Licence,食物製造廠,"ROOM 11, 7/F, BLOCK B, VERISTRONG INDUSTRIAL CENTRE, 34-36 AU PUI WAN STREET, FO TAN, SHA TIN, NEW TERRITORIES",新界沙田火炭坳背灣街34-36號豐盛工業中心B座7樓11室,Sha Tin,沙田區,2997802481,2997802481,97,97,FF,FF,豐裕食品公司,豐裕食品公司,,,16/3/2025,16/3/2025,22.3995977,114.193191,19/4/2024,828924.7912,837948.1292,837948.1292,828924.7912
Food Licences (except Restaurant Licences),食物業處所牌照(食肆牌照除外),Food Factory Licence,食物製造廠,"SHOP 4, 1/F, BLOCK A, VERISTRONG INDUSTRIAL CENTRE, 34-36 AU PUI WAN STREET, FO TAN, SHA TIN, NEW TERRITORIES",新界沙田火炭坳背灣街34-36號 豐盛工業中心A座1樓4號鋪,Sha Tin,沙田區,2997802579,2997802579,97,97,FF,FF,IMPERIAL FOOD COMPANY,皇庭匯食品公司,,,17/5/2025,17/5/2025,22.3996026,114.1931671,14/5/2024,828925.3335,837945.6681,837945.6681,828925.3335
Food Licences (except Restaurant Licences),食物業處所牌照(食肆牌照除外),Food Factory Licence,食物製造廠,"FLAT D, 9/F, FU CHEUNG CENTRE, 5-7 WONG CHUK YEUNG STREET, FO TAN, SHA TIN, NEW TERRITORIES",新界沙田火炭黄竹洋街5-7號富昌中心9樓D室,Sha Tin,沙田區,2997802205,2997802205,97,97,FF,FF,三興麵廠,三興麵廠,,,19/10/2025,19/10/2025,22.3971518,114.1904734,4/10/2024,828653.9147,837668.3213,837668.3213,828653.9147
Food Licences (except Restaurant Licences),食物業處所牌照(食肆牌照除外),Factory Canteen Licence,工廠食堂,"SHOP B1, LG/F, VALIANT INDUSTRIAL CENTRE, 2-12 AU PUI WAN STREET, FO TAN, SHA TIN, NEW TERRITORIES",新界沙田火炭坳背灣街2-12號威力工業中心地下低層B1號鋪,Sha Tin,沙田區,2597800135,2597800135,97,97,FE,FE,WING SHING ROASTED MEAT & NOODLE,永盛燒腊粉麵,,,19/10/2025,19/10/2025,22.3973884,114.1961394,2/10/2024,828680.1787,838251.7586,838251.7586,828680.1787
Food Licences (except Restaurant Licences),食物業處所牌照(食肆牌照除外),Food Factory Licence,食物製造廠,"UNIT 7 (MAJOR PTN), 9/F, WAH LAI INDUSTRIAL CENTRE, 10-14 KWEI TEI STREET, FO TAN, SHA TIN, NEW TERRITORIES",新界沙田火炭桂地街10-14號華麗工業中心9字樓7號單位 (主要部份),Sha Tin,沙田區,2997802214,2997802214,97,97,FF,FF,Kloud,Kloud,,,2/11/2025,2/11/2025,22.400165,114.1915416,7/11/2024,828987.5941,837778.2836,837778.2836,828987.5941
Food Licences (except Restaurant Licences),食物業處所牌照(食肆牌照除外),Food Factory Licence,食物製造廠,"ROOM 9, 5/F, BLOCK A, NEW TRADE PLAZA, 6 ON PING STREET, SHA TIN, NEW TERRITORIES",新界沙田安平街6號新貿中心A座5字樓9室,Sha Tin,沙田區,2997802393,2997802393,97,97,FF,FF,HO'S BROTHERS SEA FOOD CO. LTD,何氏兄弟海產有限公司,#G#H,#G#H,24/2/2026,24/2/2026,22.3906398,114.2073782,6/1/2025,827933.0595,839409.1926,839409.1926,827933.0595
Food Licences (except Restaurant Licences),食物業處所牌照(食肆牌照除外),Food Factory Licence,食物製造廠,"STALL NO. 6, SHOP 7B AND 46-80, G/F, NGAN SHING COMMERCIAL CENTRE, CITY ONE, SHA TIN, NEW TERRITORIES",新界沙田第一城銀城商場地下7B及46-80號鋪6號檔,Sha Tin,沙田區,2997802320,2997802320,97,97,FF,FF,PARK'N SHOP,PARK'N SHOP,,,31/1/2026,31/1/2026,22.386723,114.203232,9/1/2025,827499.2494,838982.3054,838982.3054,827499.2494
Food Licences (except Restaurant Licences),食物業處所牌照(食肆牌照除外),Food Factory Licence,食物製造廠,"ROOM 12, 7/F, BLOCK A, VERISTRONG INDUSTRIAL CENTRE, 34-36 AU PUI WAN STREET, FO TAN, SHA TIN, NEW TERRITORIES",新界沙田火炭坳背灣街34-36號豐盛工業中心A座7字樓12室,Sha Tin,沙田區,2997802223,2997802223,97,97,FF,FF,炳記麵廠,炳記麵廠,,,7/11/2025,7/11/2025,22.3995977,114.193191,4/10/2024,828924.7912,837948.1292,837948.1292,828924.7912
Food Licences (except Restaurant Licences),食物業處所牌照(食肆牌照除外),Food Factory Licence,食物製造廠,"BLOCK A, 2/F, VALIANT INDUSTRIAL CENTRE, 2-12 AU PUI WAN STREET, FO TAN, SHA TIN, NEW TERRITORIES",新界沙田火炭坳背灣街2-12 號威力工業大廈2樓A座,Sha Tin,沙田區,2997802791,2997802791,97,97,FF,FF,A & W Food Service (Hong Kong) Limited,勁寶食品（香港）有限公司,,,3/11/2025,3/11/2025,22.3973884,114.1961394,12/9/2024,828680.1787,838251.7586,838251.7586,828680.1787
Food Licences (except Restaurant Licences),食物業處所牌照(食肆牌照除外),Food Factory Licence,食物製造廠,"STALL NO. 2A&2B, SHOP 7B AND 46-80, G/F, NGAN SHING COMMERCIAL CENTRE, CITY ONE, SHA TIN, NEW TERRITORIES",新界沙田第一城銀城商場地下7B&46-80號鋪2A及2B檔位,Sha Tin,沙田區,2997802649,2997802649,97,97,FF,FF,PARK'N SHOP,PARK'N SHOP,,,3/7/2025,3/7/2025,22.386723,114.203232,23/5/2024,827499.2494,838982.3054,838982.3054,827499.2494
Food Licences (except Restaurant Licences),食物業處所牌照(食肆牌照除外),Food Factory Licence,食物製造廠,"KIOSK, 2/F, MA ON SHAN SPORTS GROUND, 1 HANG HONG STREET, MA ON SHAN, SHA TIN, NEW TERRITORIES",新界沙田馬鞍山恒康街1號馬鞍山運動場2樓小食亭,Sha Tin,沙田區,2997802524,2997802524,97,97,FF,FF,小食亭,小食亭,,,5/4/2025,5/4/2025,22.42108,114.227558,11/3/2024,831304.4435,841486.111,841486.111,831304.4435
Food Licences (except Restaurant Licences),食物業處所牌照(食肆牌照除外),Food Factory Licence,食物製造廠,"STALL 18A, G/F, WET MARKET COMMERCIAL COMPLEX, CHEVALIER GARDEN, MA ON SHAN, SHA TIN, NEW TERRITORIES",新界沙田馬鞍山富安花園富安街市地下18A號鋪,Sha Tin,沙田區,2997802807,2997802807,97,97,FF,FF,滾水6腳,滾水6腳,,,15/11/2025,15/11/2025,22.4052295,114.2231549,12/11/2024,829549.0764,841033.3326,841033.3326,829549.0764
Food Licences (except Restaurant Licences),食物業處所牌照(食肆牌照除外),Food Factory Licence,食物製造廠,"FLAT 12, 3/F, WAH LOK INDUSTRIAL CENTRE, SHAN MEI STREET, FO TAN, SHA TIN, NEW TERRITORIES",新界沙田火炭山尾街華樂工業中心3樓12室,Sha Tin,沙田區,2997802782,2997802782,97,97,FF,FF,The Nutter Company,The Nutter Company,,,31/10/2025,31/10/2025,22.397612,114.191732,4/9/2024,828704.8876,837797.9171,837797.9171,828704.8876
Food Licences (except Restaurant Licences),食物業處所牌照(食肆牌照除外),Food Factory Licence,食物製造廠,"PORTION B OF SHOP NOS. G76-G77, G/F, CITY ONE PLAZA, 1 NGAN SHING STREET, SHA TIN, NEW TERRITORIES",新界沙田銀城街一號第一城中心地下G76-G77號鋪B部份,Sha Tin,沙田區,2997802621,2997802621,97,97,FF,FF,7-ELEVEN FOOD STORE,七.十一便利店,#H,#H,23/6/2025,23/6/2025,22.3852572,114.2045163,22/4/2024,827336.9569,839114.5924,839114.5924,827336.9569
Food Licences (except Restaurant Licences),食物業處所牌照(食肆牌照除外),Food Factory Licence,食物製造廠,"PORTION OF SHOP NO. 2, CITYLINK PLAZA, SHA TIN, NEW TERRITORIES",新界沙田連城廣場2號鋪部份,Sha Tin,沙田區,2997802861,2997802861,97,97,FF,FF,HUNG FOOK TONG,鴻福堂,,,1/2/2026,1/2/2026,22.3826304,114.187702,23/12/2024,827045.8549,837383.0603,837383.0603,827045.8549
Food Licences (except Restaurant Licences),食物業處所牌照(食肆牌照除外),Food Factory Licence,食物製造廠,"SHOP H4, G/F, CENTURY INDUSTRIAL CENTRE, 33-35 AU PUI WAN STREET, FO TAN, SHA TIN, NEW TERRITORIES",新界沙田火炭坳背灣街33至35號 世紀工業中心地下H4號鋪,Sha Tin,沙田區,2997802889,2997802889,97,97,FF,FF,HAI JI,海記,,,6/2/2026,6/2/2026,22.3971142,114.1951177,17/1/2025,828649.8018,838146.5557,838146.5557,828649.8018
Food Licences (except Restaurant Licences),食物業處所牌照(食肆牌照除外),Food Factory Licence,食物製造廠,"SHOP NO. 31-C1, G/F, HOLFORD GARDEN SHOPPING ARCADE, 2-8 CHIK WAN STREET, TAI WAI, SHA TIN, NEW TERRITORIES",新界沙田大圍積運街2-8號海福花園商場地下31-C1號鋪,Sha Tin,沙田區,2997803484,2997803484,97,97,FF,FF,童樂,童樂,#G#H,#G#H,1/5/2025,1/5/2025,22.3734283,114.1761038,10/4/2024,826026.8157,836188.639,836188.639,826026.8157
Food Licences (except Restaurant Licences),食物業處所牌照(食肆牌照除外),Food Factory Licence,食物製造廠,"SHOP 13A & 13B, G/F, WET MARKET, CHEVALIER GARDEN, MA ON SHAN, SHA TIN, NEW TERRITORIES",新界沙田馬鞍山富安花園商場濕街市地下13A及13B號鋪,Sha Tin,沙田區,2997803952,2997803952,97,97,FF,FF,ON THAI,安泰,,,26/12/2025,26/12/2025,22.4045675,114.224561,4/12/2024,829475.8145,841178.1368,841178.1368,829475.8145
Food Licences (except Restaurant Licences),食物業處所牌照(食肆牌照除外),Food Factory Licence,食物製造廠,"PORTION OF SHOP NO. 2, G/F , FREE STANDING BLOCK NEAR MEI CHUEN HOUSE, MEI TIN ESTATE, SHA TIN, NEW TERRITORIES",新界沙田美田邨獨立大廈近美全樓地下2號舖部份,Sha Tin,沙田區,2997803970,2997803970,97,97,FF,FF,Circle K Convenience Store,OK 便利店,,,1/1/2026,1/1/2026,22.37633252,114.1708309,17/12/2024,826348.4284,835645.5995,835645.5995,826348.4284
Food Licences (except Restaurant Licences),食物業處所牌照(食肆牌照除外),Food Factory Licence,食物製造廠,"SHOP NO. G108, G/F, YIU ON SHOPPING CENTRE, YIU ON ESTATE, 2 HANG HONG STREET, SHA TIN, NEW TERRITORIES",新界沙田恆康街2號耀安邨 耀安商場地下G108號鋪,Sha Tin,沙田區,2997804131,2997804131,97,97,FF,FF,Sakana-dai Toride Sushi,魚台外賣壽司,#G#H,#G#H,3/4/2025,3/4/2025,22.4204629,114.2304123,26/3/2024,831236.2103,841779.9988,841779.9988,831236.2103
Food Licences (except Restaurant Licences),食物業處所牌照(食肆牌照除外),Food Factory Licence,食物製造廠,"STALL M2 & M3, G/F, FORTUNE CITY ONE MARKET, CITY ONE, SHA TIN, NEW TERRITORIES",新界沙田第一城置富第一城集地下M2及M3號檔,Sha Tin,沙田區,2997804025,2997804025,97,97,FF,FF,喜喜美食,喜喜美食,,,27/1/2026,27/1/2026,22.3852572,114.2045163,13/12/2024,827336.9569,839114.5924,839114.5924,827336.9569
Food Licences (except Restaurant Licences),食物業處所牌照(食肆牌照除外),Food Factory Licence,食物製造廠,"SHOP NO. 110, 1/F, YU CHUI SHOPPING CENTRE, 2 NGAU PEI SHA STREET, SIU LEK YUEN, SHA TIN, NEW TERRITORIES",新界沙田小瀝源牛皮沙街2號愉翠商場1樓110號鋪,Sha Tin,沙田區,2997802913,2997802913,97,97,FF,FF,Pie & Tart,批 & 撻,,,8/3/2026,8/3/2026,22.3821357,114.2051279,15/1/2025,826991.3076,839177.6406,839177.6406,826991.3076
Food Licences (except Restaurant Licences),食物業處所牌照(食肆牌照除外),Food Factory Licence,食物製造廠,"PORTION OF SHOP NO. ST2, G/F, FU YU HOUSE, LEK YUEN ESTATE, 6 LEK YUEN STREET, SHA TIN, NEW TERRITORIES",新界沙田瀝源街6號瀝源邨富裕樓地下ST2鋪部份,Sha Tin,沙田區,2997803794,2997803794,97,97,FF,FF,聚興樓,聚興樓,,,4/11/2025,4/11/2025,22.3844544,114.1909611,19/9/2024,827247.8644,837718.673,837718.673,827247.8644
Food Licences (except Restaurant Licences),食物業處所牌照(食肆牌照除外),Food Factory Licence,食物製造廠,"FLAT G & H, 15/F, BLOCK 1, KIN HO INDUSTRIAL BUILDING, 14-24 AU PUI WAN STREET, FO TAN, SHA TIN, NEW TERRITORIES",新界沙田火炭坳背灣街14-24號金豪工業大廈1座15樓 G及H室,Sha Tin,沙田區,2997803800,2997803800,97,97,FF,FF,立洲食品(國際)有限公司,立洲食品(國際)有限公司,,,5/11/2025,5/11/2025,22.397846,114.1954049,25/9/2024,828730.8418,838176.1194,838176.1194,828730.8418
Food Licences (except Restaurant Licences),食物業處所牌照(食肆牌照除外),Food Factory Licence,食物製造廠,"SHOP NO. 25L, LEVEL 3, SHA TIN CENTRE, SHA TIN, NEW TERRITORIES",新界沙田沙田中心第3層25L鋪,Sha Tin,沙田區,2997803509,2997803509,97,97,FF,FF,呢道正 Nidaozheng,呢道正 Nidaozheng,,,15/5/2025,15/5/2025,22.3811552,114.1873546,10/4/2024,826882.4953,837347.2955,837347.2955,826882.4953
Food Licences (except Restaurant Licences),食物業處所牌照(食肆牌照除外),Food Factory Licence,食物製造廠,"ROOM E, 14/F, YUE CHEUNG CENTRE, 1-3 WONG CHUK YEUNG STREET, SHA TIN, NEW TERRITORIES",新界沙田黃竹洋街1-3號裕昌中心14樓E室,Sha Tin,沙田區,2997803527,2997803527,97,97,FF,FF,恒興天譽有限公司,恒興天譽有限公司,,,5/6/2025,5/6/2025,22.3968892,114.1910307,10/4/2024,828624.8408,837725.7105,837725.7105,828624.8408
Food Licences (except Restaurant Licences),食物業處所牌照(食肆牌照除外),Food Factory Licence,食物製造廠,"1/F (PORTION B), COURTYARD BY MARRIOTT HONG KONG SHA TIN, 1 ON PING STREET, SHA TIN, NEW TERRITORIES",新界沙田安平街1號香港沙田萬怡酒店一樓(B部份),Sha Tin,沙田區,2997803642,2997803642,97,97,FF,FF,Courtyard by Marriott Hong Kong Sha Tin,Courtyard by Marriott Hong Kong Sha Tin,,,24/7/2025,24/7/2025,22.3906489,114.2064083,6/6/2024,827934.0472,839309.315,839309.315,827934.0472
Food Licences (except Restaurant Licences),食物業處所牌照(食肆牌照除外),Food Factory Licence,食物製造廠,"PORTION B, WORKSHOP B1, LG/F, VALIANT INDUSTRIAL CENTRE, 2-12 AU PUI WAN STREET, SHA TIN, NEW TERRITORIES",新界沙田坳背灣街2-12號威力工業中心地下低層B1號B部份,Sha Tin,沙田區,2997804168,2997804168,97,97,FF,FF,迦勒外賣,迦勒外賣,,,13/5/2025,13/5/2025,22.3973884,114.1961394,26/3/2024,828680.1787,838251.7586,838251.7586,828680.1787
Food Licences (except Restaurant Licences),食物業處所牌照(食肆牌照除外),Food Factory Licence,食物製造廠,"UNIT S131, 1/F, LAKESIDE 1, HONG KONG SCIENCE PARK, SHA TIN, NEW TERRITORIES",新界沙田香港科學園尚湖樓1樓S131單位,Sha Tin,沙田區,2997804186,2997804186,97,97,FF,FF,Subway,Subway,,,15/5/2025,15/5/2025,22.4262284,114.2116508,25/4/2024,831874.091,839848.2594,839848.2594,831874.091
Food Licences (except Restaurant Licences),食物業處所牌照(食肆牌照除外),Food Factory Licence,食物製造廠,"FLAT 13, 15/F, TECHNOLOGY PARK, 18 ON LAI STREET, SHEK MUN, SHA TIN, NEW TERRITORIES",新界沙田石門安麗街18號達利廣場15樓13室,Sha Tin,沙田區,2997804043,2997804043,97,97,FF,FF,Quality Life Coffee,Quality Life Coffee,,,29/1/2026,29/1/2026,22.3889086,114.2074148,20/1/2025,827741.3547,839413.0006,839413.0006,827741.3547
Food Licences (except Restaurant Licences),食物業處所牌照(食肆牌照除外),Food Factory Licence,食物製造廠,"FLAT R, 11/F, HARIBEST INDUSTRIAL BUILDING, 45-47 AU PUI WAN STREET, FO TAN, SHA TIN, NEW TERRITORIES",新界沙田火炭坳背灣街45-47號喜利佳工業大廈 11/F R室,Sha Tin,沙田區,2997804034,2997804034,97,97,FF,FF,Carewells Limited,Carewells Limited,,,29/1/2026,29/1/2026,22.3981115,114.1940495,22/1/2025,828760.2256,838036.5481,838036.5481,828760.2256
Food Licences (except Restaurant Licences),食物業處所牌照(食肆牌照除外),Food Factory Licence,食物製造廠,"SHOP NO. 302 (PORTION B), LEVEL 3 , SHA KOK SHOPPING CENTRE, SHA KOK ESTATE, SHA TIN, NEW TERRITORIES",新界沙田  沙角邨 沙角商場 三樓302號舗(B部份),Sha Tin,沙田區,2997804052,2997804052,97,97,FF,FF,Wellcome,惠康,#G#H,#G#H,29/1/2026,29/1/2026,22.3787079,114.1950346,3/12/2024,826611.5678,838138.2453,838138.2453,826611.5678
Food Licences (except Restaurant Licences),食物業處所牌照(食肆牌照除外),Food Factory Licence,食物製造廠,"SHOP S4, G/F, CHEVALIER GARDEN, 2 HANG SHUN STREET, SHA TIN, NEW TERRITORIES",新界沙田恒信街2號富安花園地下S4號鋪,Sha Tin,沙田區,2997803615,2997803615,97,97,FF,FF,飽飽豬,飽飽豬,#G#H,#G#H,8/7/2025,8/7/2025,22.4046628,114.222448,17/7/2024,829486.3001,840960.5648,840960.5648,829486.3001
Food Licences (except Restaurant Licences),食物業處所牌照(食肆牌照除外),Food Factory Licence,食物製造廠,"PORTION B OF SHOP NOS. G3 & G4, G/F, WO CHE PLAZA, WO CHE ESTATE, SHA TIN, NEW TERRITORIES",新界沙田禾輋邨禾輋廣場地下G3及G4號鋪B部份,Sha Tin,沙田區,2997802843,2997802843,97,97,FF,FF,7-ELEVEN FOOD STORE,七.十一便利店,#H,#H,28/12/2025,28/12/2025,22.3879318,114.1952336,30/10/2024,827632.9839,838158.6146,838158.6146,827632.9839
Food Licences (except Restaurant Licences),食物業處所牌照(食肆牌照除外),Food Factory Licence,食物製造廠,"ROOM 4-5, 3/F, TRANSPORT CITY BUILDING, 1-7 SHING WAN ROAD, TAI WAI, SHA TIN, NEW TERRITORIES",新界沙田大圍成運路1-7號交通城大廈3樓4-5號室,Sha Tin,沙田區,2997803624,2997803624,97,97,FF,FF,Tai Hing Noodles Factory Co. Ltd.,泰興粉麵廠有限公司,,,14/7/2025,14/7/2025,22.3762418,114.1815563,9/5/2024,826338.3773,836750.1804,836750.1804,826338.3773
Food Licences (except Restaurant Licences),食物業處所牌照(食肆牌照除外),Food Factory Licence,食物製造廠,"SHOP G54, G/F, SADDLE RIDGE GARDEN COMMERCIAL CENTRE, 6 KAM YING ROAD, MA ON SHAN, SHA TIN, NEW TERRITORIES",新界沙田馬鞍山錦英路6號富寶花園商場地下G54號鋪,Sha Tin,沙田區,2997803633,2997803633,97,97,FF,FF,幻月壽司,幻月壽司,#G#H,#G#H,18/7/2025,18/7/2025,22.4247818,114.2359837,2/5/2024,831714.6837,842353.4144,842353.4144,831714.6837
Food Licences (except Restaurant Licences),食物業處所牌照(食肆牌照除外),Food Factory Licence,食物製造廠,"SHOP NO. G66B, G/F, CITY ONE PLAZA, CITY ONE SHA TIN, SHA TIN, NEW TERRITORIES",新界沙田沙田第一城第一城中心地下G66B號鋪,Sha Tin,沙田區,2997802719,2997802719,97,97,FF,FF,GONG CHA,貢茶,,,10/8/2025,10/8/2025,22.3852572,114.2045163,2/8/2024,827336.9569,839114.5924,839114.5924,827336.9569
Food Licences (except Restaurant Licences),食物業處所牌照(食肆牌照除外),Food Factory Licence,食物製造廠,"SHOP G65, G/F, CITY ONE PLAZA, CITY ONE, SHA TIN, NEW TERRITORIES",新界沙田第一城第一城中心地下G65號鋪,Sha Tin,沙田區,2997802694,2997802694,97,97,FF,FF,CITY ONE BEVERAGE CO.,第一城冰站,,,27/7/2025,27/7/2025,22.3852572,114.2045163,16/7/2024,827336.9569,839114.5924,839114.5924,827336.9569
Food Licences (except Restaurant Licences),食物業處所牌照(食肆牌照除外),Food Factory Licence,食物製造廠,"WORKSHOP C16, 7/F, BLOCK C, WAH LOK INDUSTRIAL CENTRE, PHASE II, 31-35 SHAN MEI STREET, FO TAN, SHA TIN, NEW TERRITORIES",新界沙田火炭山尾街31-35號 華樂工業中心2期 C座7樓C16室,Sha Tin,沙田區,2997802700,2997802700,97,97,FF,FF,同心食品貿易公司,同心食品貿易公司,,,3/8/2025,3/8/2025,22.3980216,114.191588,4/6/2024,828750.2435,837783.0847,837783.0847,828750.2435
Food Licences (except Restaurant Licences),食物業處所牌照(食肆牌照除外),Food Factory Licence,食物製造廠,"FLAT L, 15/F, YUE CHEUNG CENTRE, 1-3 WONG CHUK YEUNG STREET, SHA TIN, NEW TERRITORIES",新界沙田黃竹洋街1-3號裕昌中心15樓L室,Sha Tin,沙田區,2997804308,2997804308,97,97,FF,FF,Luen Fung Flour Noodle Factory Ltd.,聯豐粉麵廠有限公司,,,25/6/2025,25/6/2025,22.3968892,114.1910307,23/4/2024,828624.8408,837725.7105,837725.7105,828624.8408
Food Licences (except Restaurant Licences),食物業處所牌照(食肆牌照除外),Food Factory Licence,食物製造廠,"2/F (MAJOR PORTION), 13-15 SHING WAN ROAD, SHA TIN, NEW TERRITORIES",新界沙田成運路13-15號2樓(大部份),Sha Tin,沙田區,2997804317,2997804317,97,97,FF,FF,BRIGHT OVERSEAS FOOD LIMITED,僑陽陸海產有限公司,,,1/7/2025,1/7/2025,22.376563,114.1806274,26/4/2024,826373.9428,836654.5144,836654.5144,826373.9428
Food Licences (except Restaurant Licences),食物業處所牌照(食肆牌照除外),Food Factory Licence,食物製造廠,"FLAT 1-2, 7/F, YALE INDUSTRIAL CENTRE, 61-63 AU PUI WAN STREET, FO TAN, SHA TIN, NEW TERRITORIES",新界沙田火炭坳背灣街61-63號盈力工業中心7樓1-2室,Sha Tin,沙田區,2997803749,2997803749,97,97,FF,FF,LUCK TRIUMPH LIMITED,祥勝行有限公司,,,5/9/2025,5/9/2025,22.3998809,114.1919596,5/8/2024,828956.1383,837821.3283,837821.3283,828956.1383
Food Licences (except Restaurant Licences),食物業處所牌照(食肆牌照除外),Food Factory Licence,食物製造廠,"SHOP 11, G/F, CHEVALIER GARDEN COMMERCIAL COMPLEX, 2 HANG SHUN STREET, MA ON SHAN, SHA TIN, NEW TERRITORIES",新界沙田馬鞍山恆信街2號 富安花園商場地下11號鋪,Sha Tin,沙田區,2997802737,2997802737,97,97,FF,FF,Homemade,自家甜品,,,14/9/2025,14/9/2025,22.404843,114.224048,26/9/2024,829506.3056,841125.3053,841125.3053,829506.3056
Food Licences (except Restaurant Licences),食物業處所牌照(食肆牌照除外),Food Factory Licence,食物製造廠,"FLAT 28, 10/F, BLOCK B, WAH LOK INDUSTRIAL CENTRE, SHAN MEI STREET, FO TAN, SHA TIN, NEW TERRITORIES",新界沙田火炭山尾街華樂工業中心B座10樓28室,Sha Tin,沙田區,2997804423,2997804423,97,97,FF,FF,標記肉食,標記肉食,,,24/7/2025,24/7/2025,22.397612,114.191732,21/5/2024,828704.8876,837797.9171,837797.9171,828704.8876
Food Licences (except Restaurant Licences),食物業處所牌照(食肆牌照除外),Food Factory Licence,食物製造廠,"STALL NO. 16 , SHOP NO. 1-17, PLAZA ASCOT, ROYAL ASCOT, TSUN KING ROAD, SHA TIN, NEW TERRITORIES",新界沙田駿景路駿景園 駿景廣場1-17號鋪16號檔,Sha Tin,沙田區,2997803846,2997803846,97,97,FF,FF,Fusion,Fusion,,,3/12/2025,3/12/2025,22.3988936,114.2013472,4/11/2024,828846.9363,838787.9892,838787.9892,828846.9363
Food Licences (except Restaurant Licences),食物業處所牌照(食肆牌照除外),Food Factory Licence,食物製造廠,"STALL NO. 12 & 13, SHOP NO. 1-17, PLAZA ASCOT, ROYAL ASCOT, TSUN KING ROAD, SHA TIN, NEW TERRITORIES",新界沙田駿景路駿景園 駿景廣場1-17號鋪12及13號檔,Sha Tin,沙田區,2997803855,2997803855,97,97,FF,FF,Fusion,Fusion,#G#H,#G#H,3/12/2025,3/12/2025,22.3988936,114.2013472,4/11/2024,828846.9363,838787.9892,838787.9892,828846.9363
Food Licences (except Restaurant Licences),食物業處所牌照(食肆牌照除外),Food Factory Licence,食物製造廠,"MINOR PORTION OF UNIT 01,17/F,BLOCK A, VERISTRONG INDUSTRIAL CENTRE, 34-36 AU PUI WAN STREET, FO TAN, SHA TIN, NEW TERRITORIES",新界沙田火炭坳背灣街34-36號豐盛工業中心A座17樓01室 小部份,Sha Tin,沙田區,2997803767,2997803767,97,97,FF,FF,媽子廚房,媽子廚房,,,16/10/2025,16/10/2025,22.3995977,114.193191,8/10/2024,828924.7912,837948.1292,837948.1292,828924.7912
Food Licences (except Restaurant Licences),食物業處所牌照(食肆牌照除外),Food Factory Licence,食物製造廠,"WORKSHOP 1, WING 2, G/F, SUN FONG HOUSE, SUN CHUI ESTATE, TAI WAI, SHA TIN, NEW TERRITORIES",新界沙田大圍新翠邨新芳樓地下第2翼單位1,Sha Tin,沙田區,2997803280,2997803280,97,97,FF,FF,匡智會,匡智會,,,30/12/2025,30/12/2025,22.3714238,114.1819743,10/12/2024,825804.8554,836793.2475,836793.2475,825804.8554
Food Licences (except Restaurant Licences),食物業處所牌照(食肆牌照除外),Factory Canteen Licence,工廠食堂,"UNIT A18, G/F, KOON WAH MIRROR GROUP BUILDING, 2 YUEN SHUN CIRCUIT, SHA TIN, NEW TERRITORIES",新界沙田源順圍2號冠華鏡廠集團大廈地下A18單位,Sha Tin,沙田區,2597800153,2597800153,97,97,FE,FE,食得福美食坊,食得福美食坊,,,12/6/2025,12/6/2025,22.3829198,114.2056949,17/12/2024,827078.1464,839236.0154,839236.0154,827078.1464
Food Licences (except Restaurant Licences),食物業處所牌照(食肆牌照除外),Food Factory Licence,食物製造廠,"SHOP NO. TAW 53, MTR TAI WAI STATION, SHA TIN, NEW TERRITORIES",新界沙田港鐵大圍站TAW 53 號鋪,Sha Tin,沙田區,2997803110,2997803110,97,97,FF,FF,HUNG FOOK TONG,鴻福堂,,,17/9/2025,17/9/2025,22.373284,114.178152,16/8/2024,826010.837,836399.5826,836399.5826,826010.837
Food Licences (except Restaurant Licences),食物業處所牌照(食肆牌照除外),Food Factory Licence,食物製造廠,"FLAT F, 15/F, YUE CHEUNG CENTRE, 1-3 WONG CHUK YEUNG STREET, SHA TIN, NEW TERRITORIES",新界沙田黃竹洋街1-3號裕昌中心15樓F室,Sha Tin,沙田區,2997804177,2997804177,97,97,FF,FF,Luen Fung Flour Noodle Factory Ltd.,聯豐粉麵廠有限公司,,,14/5/2025,14/5/2025,22.3968892,114.1910307,23/4/2024,828624.8408,837725.7105,837725.7105,828624.8408
Food Licences (except Restaurant Licences),食物業處所牌照(食肆牌照除外),Food Factory Licence,食物製造廠,"SHOP 14, 6/F, TRANSPORT CITY BUILDING, 1-7 SHING WAN ROAD, SHA TIN, NEW TERRITORIES",新界沙田成運路1-7號交通城大廈6樓14號鋪,Sha Tin,沙田區,2997804195,2997804195,97,97,FF,FF,Kam Fat Noodle Factory,金發粉麵廠,,,15/5/2025,15/5/2025,22.3762418,114.1815563,9/4/2024,826338.3773,836750.1804,836750.1804,826338.3773
Food Licences (except Restaurant Licences),食物業處所牌照(食肆牌照除外),Food Factory Licence,食物製造廠,"SHOP 316-319, 3/F, BLOCK B, WAH SANG INDUSTRIAL BUILDING, 14-18 WONG CHUK YEUNG STREET, FO TAN, SHA TIN, NEW TERRITORIES",新界沙田火炭黃竹洋街14-18號華生工業大廈B座3樓316 -319室,Sha Tin,沙田區,2997804229,2997804229,97,97,FF,FF,Tai Hing,太興,,,21/5/2025,21/5/2025,22.3982213,114.1900137,13/5/2024,828772.3424,837620.9746,837620.9746,828772.3424
Food Licences (except Restaurant Licences),食物業處所牌照(食肆牌照除外),Food Factory Licence,食物製造廠,"MAJOR PORTION OF SHOP 103, LEVEL 1, PHASE 1, NEW TOWN PLAZA, SHA TIN, NEW TERRITORIES",新界沙田新城市廣場一期一樓103號鋪大部份,Sha Tin,沙田區,2997804159,2997804159,97,97,FF,FF,Godiva Chocolatier,Godiva Chocolatier,,,7/5/2025,7/5/2025,22.3817578,114.1886372,2/5/2024,826949.2343,837479.3775,837479.3775,826949.2343
Food Licences (except Restaurant Licences),食物業處所牌照(食肆牌照除外),Food Factory Licence,食物製造廠,"SHOP 509, LEVEL 5, PHASE 1, NEW TOWN PLAZA, SHA TIN, NEW TERRITORIES",新界沙田新城市廣場第一期5樓509號鋪,Sha Tin,沙田區,2997803606,2997803606,97,97,FF,FF,HAAGEN DAZS,HAAGEN DAZS,,,2/7/2025,2/7/2025,22.3817578,114.1886372,21/5/2024,826949.2343,837479.3775,837479.3775,826949.2343
Food Licences (except Restaurant Licences),食物業處所牌照(食肆牌照除外),Food Factory Licence,食物製造廠,"ROOM B, 1/F, SUNKING INDUSTRY BUILDING, 1-7 SHING CHUEN ROAD, TAI WAI, SHA TIN, NEW TERRITORIES",新界沙田大圍成全路1-7號順景工業大廈1樓B室,Sha Tin,沙田區,2997803314,2997803314,97,97,FF,FF,CY Food Trading (HK) Co. Ltd,日新食品貿易(香港)有限公司,,,17/1/2026,17/1/2026,22.3771922,114.1824387,22/11/2024,826443.6234,836841.0528,836841.0528,826443.6234
Food Licences (except Restaurant Licences),食物業處所牌照(食肆牌照除外),Food Factory Licence,食物製造廠,"SHOP 20B, G/F, GRANDWAY GARDEN, 67-77 TAI WAI ROAD, SHA TIN, NEW TERRITORIES",新界沙田大圍路67-77號富嘉花園地下20B鋪,Sha Tin,沙田區,2997802977,2997802977,97,97,FF,FF,豪大大雞排,豪大大雞排,,,7/6/2025,7/6/2025,22.373728,114.1779371,27/3/2024,826060.0033,836377.4497,836377.4497,826060.0033
Food Licences (except Restaurant Licences),食物業處所牌照(食肆牌照除外),Food Factory Licence,食物製造廠,"FLAT/ROOM 11-12, 13/F, BLOCK B, VERISTRONG INDUSTRIAL CENTRE, 34-36 AU PUI WAN STREET, FO TAN, SHA TIN, NEW TERRITORIES",新界沙田火炭坳背灣街34-36號豐盛工業中心 B座13樓11-12室,Sha Tin,沙田區,2997803022,2997803022,97,97,FF,FF,Butter Bakery,Butter Bakery,,,4/7/2025,4/7/2025,22.3995977,114.193191,19/6/2024,828924.7912,837948.1292,837948.1292,828924.7912
Food Licences (except Restaurant Licences),食物業處所牌照(食肆牌照除外),Food Factory Licence,食物製造廠,"MAJOR PORTION OF 4/F, HK JEBN GROUP CENTER, 13-15 SHING WAN ROAD, TAI WAI, SHA TIN, NEW TERRITORIES",新界沙田大圍成運路13-15號樓上集團中心4樓(主要部分),Sha Tin,沙田區,2997804265,2997804265,97,97,FF,FF,BRIGHT OVERSEAS FOOD LTD,僑陽陸海產有限公司,,,9/6/2025,9/6/2025,22.3765658,114.1806251,22/4/2024,826374.2529,836654.2775,836654.2775,826374.2529
Food Licences (except Restaurant Licences),食物業處所牌照(食肆牌照除外),Food Factory Licence,食物製造廠,"FLAT 8, 8/F, WORLD-WIDE INDUSTRIAL CENTRE, 43-47 SHAN MEI STREET, FO TAN, SHA TIN, NEW TERRITORIES",新界沙田火炭山尾街43-47號環球工業中心8樓8號室,Sha Tin,沙田區,2997804326,2997804326,97,97,FF,FF,LINKARE FOOD MANUFACTORY,領康食品製造廠,,,1/7/2025,1/7/2025,22.3988661,114.1906592,23/4/2024,828843.7507,837687.4361,837687.4361,828843.7507
Food Licences (except Restaurant Licences),食物業處所牌照(食肆牌照除外),Food Factory Licence,食物製造廠,"PORTION A OF 5/F, 13-15 SHING WAN ROAD, SHA TIN, NEW TERRITORIES",新界沙田成運路13-15號5樓A部份,Sha Tin,沙田區,2997804292,2997804292,97,97,FF,FF,BRIGHT OVERSEAS FOOD LIMITED,僑陽陸海產有限公司,,,17/6/2025,17/6/2025,22.376563,114.1806274,24/5/2024,826373.9428,836654.5144,836654.5144,826373.9428
Food Licences (except Restaurant Licences),食物業處所牌照(食肆牌照除外),Food Factory Licence,食物製造廠,"4/F (PORTION), EVER GAIN BUILDING, 21-23 YUEN SHUN CIRCUIT, SHA TIN, NEW TERRITORIES",新界沙田源順圍21-23號永得利大廈4樓(部份),Sha Tin,沙田區,2997803174,2997803174,97,97,FF,FF,"KUBOTA RICE INDUSTRY (H.K.) CO., LIMITED",久保田米業(香港)有限公司,,,1/11/2025,1/11/2025,22.3815366,114.2079354,13/9/2024,826925.023,839466.7798,839466.7798,826925.023
Food Licences (except Restaurant Licences),食物業處所牌照(食肆牌照除外),Food Factory Licence,食物製造廠,"WORKSHOP E, 7/F, INTERNATIONAL INDUSTRIAL CENTRE, 2-8 KWEI TEI STREET, SHA TIN, NEW TERRITORIES",新界沙田桂地街2-8號國際工業中心7樓E鋪,Sha Tin,沙田區,2997802904,2997802904,97,97,FF,FF,Seoul Noodle Shop,Seoul Noodle Shop,,,7/3/2025,7/3/2025,22.400549,114.1921453,18/10/2024,829030.1228,837840.4423,837840.4423,829030.1228
Food Licences (except Restaurant Licences),食物業處所牌照(食肆牌照除外),Factory Canteen Licence,工廠食堂,"SHOP NO. 4E,  FRONT, G/F, FO TAN INDUSTRIAL CENTRE, 26-28 AU PUI WAN STREET, FO TAN, SHA TIN, NEW TERRITORIES",新界沙田火炭坳背灣街26-28號富騰工業中心4E前鋪,Sha Tin,沙田區,2597800144,2597800144,97,97,FE,FE,Ichu Club,Ichu Club,,,15/1/2026,15/1/2026,22.3990758,114.19458,10/1/2025,828867.0144,838091.1619,838091.1619,828867.0144
Food Licences (except Restaurant Licences),食物業處所牌照(食肆牌照除外),Food Factory Licence,食物製造廠,"PORTION B OF 5/F, 13-15 SHING WAN ROAD, SHA TIN, NEW TERRITORIES",新界沙田成運路13-15號5樓B部份,Sha Tin,沙田區,2997804344,2997804344,97,97,FF,FF,HK JEBN LIMITED,樓上燕窩莊有限公司,,,3/7/2025,3/7/2025,22.376563,114.1806274,31/5/2024,826373.9428,836654.5144,836654.5144,826373.9428
Food Licences (except Restaurant Licences),食物業處所牌照(食肆牌照除外),Food Factory Licence,食物製造廠,"SHOP NO. S52, G/F, SUNSHINE CITY CHINESE MARKET, SUNSHINE CITY PLAZA, PHASE 4, MA ON SHAN, SHA TIN, NEW TERRITORIES",新界沙田馬鞍山新港城中心第4期新港城街市地下S52號鋪,Sha Tin,沙田區,2997804353,2997804353,97,97,FF,FF,厚興瑜記,厚興瑜記,,,9/7/2025,9/7/2025,22.4240947,114.2305381,2/12/2024,831638.3863,841792.8067,841792.8067,831638.3863
Food Licences (except Restaurant Licences),食物業處所牌照(食肆牌照除外),Food Factory Licence,食物製造廠,"UNIT 19, 12/F, WAH YIU INDUSTRIAL CENTRE, 30-32 AU PUI WAN STREET, FO TAN, SHA TIN, NEW TERRITORIES",新界沙田火炭坳背灣街30-32號華耀工業中心12樓19室,Sha Tin,沙田區,2997804371,2997804371,97,97,FF,FF,Herbaceous Teas,良茶隅作坊,,,14/7/2025,14/7/2025,22.3991436,114.1938104,8/5/2024,828874.5132,838011.9147,838011.9147,828874.5132
Food Licences (except Restaurant Licences),食物業處所牌照(食肆牌照除外),Food Factory Licence,食物製造廠,"BLOCK C10, 18/F, WAH LOK INDUSTRIAL CENTRE, 31-41 SHAN MEI STREET, SHA TIN, NEW TERRITORIES",新界沙田山尾街31-41號華樂工業中心18樓C10室,Sha Tin,沙田區,2997803493,2997803493,97,97,FF,FF,N & L FOOD TECH COMPANY LIMITED,高達食品科技有限公司,,,1/5/2025,1/5/2025,22.397612,114.191732,18/4/2024,828704.8876,837797.9171,837797.9171,828704.8876
Food Licences (except Restaurant Licences),食物業處所牌照(食肆牌照除外),Food Factory Licence,食物製造廠,"FLAT 6, 8/F, WAH WAI CENTRE, 38-40 AU PUI WAN STREET, FO TAN, SHA TIN, NEW TERRITORIES",新界沙田火炭坳背灣街38-40號華衛工貿中心8樓6號室,Sha Tin,沙田區,2997804016,2997804016,97,97,FF,FF,Advance Food International Limited,先進食品國際有限公司,,,20/1/2026,20/1/2026,22.400112,114.1927027,22/11/2024,828981.7372,837897.8427,837897.8427,828981.7372
Food Licences (except Restaurant Licences),食物業處所牌照(食肆牌照除外),Food Factory Licence,食物製造廠,"WORKSHOP A, 12/F, INTERNATIONAL INDUSTRIAL CENTRE, 2-8 KWEI TEI STREET, SHA TIN, NEW TERRITORIES",新界沙田桂地街2-8號國際工業中心12樓A鋪,Sha Tin,沙田區,2997803819,2997803819,97,97,FF,FF,Tiffany's Community Bakery Limited,Tiffany's Community Bakery Limited,,,7/11/2025,7/11/2025,22.400549,114.1921453,12/9/2024,829030.1228,837840.4423,837840.4423,829030.1228
Food Licences (except Restaurant Licences),食物業處所牌照(食肆牌照除外),Food Factory Licence,食物製造廠,"SHOP SHT 36, UNPAID CONCOURSE LEVEL, MTR SHA TIN STATION, SHA TIN, NEW TERRITORIES",新界沙田沙田港鐵站出口SHT36號舖,Sha Tin,沙田區,2997803536,2997803536,97,97,FF,FF,Bee Cheng Hiang,美珍香,,,6/6/2025,6/6/2025,22.3772578,114.1952057,9/4/2024,826450.9924,838155.8858,838155.8858,826450.9924
Food Licences (except Restaurant Licences),食物業處所牌照(食肆牌照除外),Food Factory Licence,食物製造廠,"SHOP SHT 37, MTR SHA TIN STATION, SHA TIN, NEW TERRITORIES",新界沙田港鐵沙田站37號鋪,Sha Tin,沙田區,2997803077,2997803077,97,97,FF,FF,Chez Choux,西樹泡芙,,,15/8/2025,15/8/2025,22.383936,114.187994,7/8/2024,827190.4334,837413.1206,837413.1206,827190.4334
Food Licences (except Restaurant Licences),食物業處所牌照(食肆牌照除外),Food Factory Licence,食物製造廠,"SHOP 251, 2/F, COMMERCIAL/CAR PARK BLOCK (ALSO KNOWN AS SHA KOK SHOPPING CENTRE), SHA KOK ESTATE, 5 SHA KOK STREET, SHA TIN, NEW TERRITORIES",新界沙田沙角街5號沙角邨 沙角商場2樓251鋪,Sha Tin,沙田區,2997804502,2997804502,97,97,FF,FF,MAXIM'S CAKES,美心西餅,,,13/10/2025,13/10/2025,22.3768549,114.1943948,2/9/2024,826406.3671,838072.379,838072.379,826406.3671
Food Licences (except Restaurant Licences),食物業處所牌照(食肆牌照除外),Food Factory Licence,食物製造廠,"SHOP 21, G/F, GRANDWAY GARDEN, 15 & 35 TSUEN NAM ROAD, SHA TIN, NEW TERRITORIES",新界沙田村南道15&35號富嘉花園地下21號鋪,Sha Tin,沙田區,2997804441,2997804441,97,97,FF,FF,Arome Bakery,東海堂,,,4/9/2025,4/9/2025,22.373728,114.1779371,29/7/2024,826060.0033,836377.4497,836377.4497,826060.0033
Food Licences (except Restaurant Licences),食物業處所牌照(食肆牌照除外),Food Factory Licence,食物製造廠,"FLAT O, 18/F, INTERNATIONAL INDUSTRIAL CENTRE, 2-8 KWEI TEI STREET, FO TAN, SHA TIN, NEW TERRITORIES",新界沙田火炭桂地街2-8號國際工業中心18樓O室,Sha Tin,沙田區,2997804469,2997804469,97,97,FF,FF,YONG DING TANG HERBAL LIMITED,永定堂涼茶有限公司,,,23/9/2025,23/9/2025,22.400549,114.1921453,10/9/2024,829030.1228,837840.4423,837840.4423,829030.1228
Food Licences (except Restaurant Licences),食物業處所牌照(食肆牌照除外),Factory Canteen Licence,工廠食堂,"UNIT 4F (REAR), G/F, FO TAN INDUSTRIAL CENTRE, 26-28 AU PUI WAN STREET, FO TAN, SHA TIN, NEW TERRITORIES",新界沙田火炭坳背灣街26-28號富騰工業中心地下4F號鋪後面,Sha Tin,沙田區,2597800171,2597800171,97,97,FE,FE,喜樂亭,喜樂亭,,,21/10/2025,21/10/2025,22.3988009,114.1943744,15/10/2024,828836.5707,838069.9947,838069.9947,828836.5707
Food Licences (except Restaurant Licences),食物業處所牌照(食肆牌照除外),Food Factory Licence,食物製造廠,"UNIT 709-712, 7/F, NEW COMMERCE CENTRE, 19 ON SUM STREET, SHA TIN, NEW TERRITORIES",新界沙田安心街19號貿中心7樓709-712號鋪,Sha Tin,沙田區,2997803165,2997803165,97,97,FF,FF,A-1 Bakery,A-1 Bakery,,,25/10/2025,25/10/2025,22.3891,114.2071925,3/9/2024,827762.5449,839390.1042,839390.1042,827762.5449
Food Licences (except Restaurant Licences),食物業處所牌照(食肆牌照除外),Food Factory Licence,食物製造廠,"OPEN SPACE (NEAR SHOP NOS. 2130-31), LEVEL 2,  MOSTOWN, NO.18 ON LUK STREET , MA ON SHAN, SHA TIN, NEW TERRITORIES",新界沙田馬鞍山 鞍祿街18號新港城2樓 (近2130-31號鋪),Sha Tin,沙田區,2997803563,2997803563,97,97,FF,FF,Starbucks Coffee,Starbucks Coffee,,,19/6/2025,19/6/2025,22.4241633,114.2314688,19/12/2024,831646.0174,841888.6218,841888.6218,831646.0174
Food Licences (except Restaurant Licences),食物業處所牌照(食肆牌照除外),Food Factory Licence,食物製造廠,"SHOP SHT 39, SHA TIN MTR STATION, SHA TIN, NEW TERRITORIES",新界沙田沙田港鐵站SHT39號鋪,Sha Tin,沙田區,2997803095,2997803095,97,97,FF,FF,健康工房,健康工房,,,5/9/2025,5/9/2025,22.377366,114.194869,1/8/2024,826462.9698,838121.2087,838121.2087,826462.9698
Food Licences (except Restaurant Licences),食物業處所牌照(食肆牌照除外),Food Factory Licence,食物製造廠,"FLAT B, 8/F, LEAPONT INDUSTRIAL BUILDING, 18-28 WO LIU HANG ROAD, FO TAN, SHA TIN, NEW TERRITORIES",新界沙田火炭禾寮坑路18-28號聯邦工業大廈8樓B室,Sha Tin,沙田區,2997803350,2997803350,97,97,FF,FF,Circle Bakery,Circle Bakery,,,17/2/2026,17/2/2026,22.3974288,114.1972459,4/2/2025,828684.6675,838365.6965,838365.6965,828684.6675
Food Licences (except Restaurant Licences),食物業處所牌照(食肆牌照除外),Factory Canteen Licence,工廠食堂,"FLAT H2, LG/F, VALIANT INDUSTRIAL CENTRE, 2-12 AU PUI WAN STREET, SHA TIN, NEW TERRITORIES",新界沙田坳背灣街2-12號威力工業中心低層地下H2鋪,Sha Tin,沙田區,2597800199,2597800199,97,97,FE,FE,KWUN YAT CHIN,館一千,,,21/3/2025,21/3/2025,22.3973884,114.1961394,30/4/2024,828680.1787,838251.7586,838251.7586,828680.1787
Food Licences (except Restaurant Licences),食物業處所牌照(食肆牌照除外),Food Factory Licence,食物製造廠,"SHOP 22, 23, G/F, LUCKY MARKET, YU CHUI SHOPPING CENTRE, 2 NGAU PEI SHA STREET, SHA TIN, NEW TERRITORIES",新界沙田牛皮沙街2號愉翠商場街市地下22及23號鋪,Sha Tin,沙田區,2997803244,2997803244,97,97,FF,FF,麵飽皇子,麵飽皇子,,,26/11/2025,26/11/2025,22.3821357,114.2051279,26/9/2024,826991.3076,839177.6406,839177.6406,826991.3076
Food Licences (except Restaurant Licences),食物業處所牌照(食肆牌照除外),Food Factory Licence,食物製造廠,"ROOM 45, 5/F, BLOCK F, WAH LOK INDUSTRIAL CENTRE, PHASE II, FO TAN, SHA TIN, NEW TERRITORIES",新界沙田火炭華樂工業中心第II期F座5樓45室,Sha Tin,沙田區,2997805204,2997805204,97,97,FF,FF,YEAR BOOM LIMITED,YEAR BOOM LIMITED,,,22/10/2025,22/10/2025,22.397612,114.191732,29/8/2024,828704.8876,837797.9171,837797.9171,828704.8876
